target/classes/ECEF/AccessRandom8/PRN16S450.txt

                                                                           8 Sep 2023 21:02:23
Civil Air Patrol Use Only
Facility-Xian-To-Satellite-gps-svn56:  Inview Azimuth, Elevation, & Range


Xian-To-gps-svn56 - AER reported in the object's default AER frame
------------------------------------------------------------------
                         Time (UTCG)          Azimuth (deg)    Elevation (deg)     Range (km) 
                  ------------------------    -------------    ---------------    ------------
                  14 Sep 2022 11:56:15.822          205.638             30.000    22576.672247
                  14 Sep 2022 12:03:45.000          206.805             33.469    22274.014926
                  14 Sep 2022 12:11:15.000          208.144             36.985    21983.895936
                  14 Sep 2022 12:18:45.000          209.674             40.536    21708.442057
                  14 Sep 2022 12:26:15.000          211.421             44.114    21449.129991
                  14 Sep 2022 12:33:45.000          213.421             47.710    21207.331606
                  14 Sep 2022 12:41:15.000          215.724             51.314    20984.295079
                  14 Sep 2022 12:48:45.000          218.400             54.912    20781.126113
                  14 Sep 2022 12:56:15.000          221.547             58.488    20598.771199
                  14 Sep 2022 13:03:45.000          225.311             62.018    20438.002387
                  14 Sep 2022 13:11:15.000          229.912             65.472    20299.405456
                  14 Sep 2022 13:18:45.000          235.684             68.804    20183.370959
                  14 Sep 2022 13:26:15.000          243.145             71.941    20090.089727
                  14 Sep 2022 13:33:45.000          253.067             74.767    20019.552189
                  14 Sep 2022 13:41:15.000          266.436             77.088    19971.552545
                  14 Sep 2022 13:48:45.000          283.863             78.618    19945.696963
                  14 Sep 2022 13:56:15.000          304.100             79.055    19941.416140
                  14 Sep 2022 14:03:45.000          323.647             78.319    19957.981275
                  14 Sep 2022 14:11:15.000          339.691             76.645    19994.523140
                  14 Sep 2022 14:18:45.000          351.908             74.372    20050.053327
                  14 Sep 2022 14:26:15.000            1.187             71.761    20123.486895
                  14 Sep 2022 14:33:45.000            8.455             68.973    20213.665714
                  14 Sep 2022 14:41:15.000           14.379             66.101    20319.381540
                  14 Sep 2022 14:48:45.000           19.395             63.203    20439.398433
                  14 Sep 2022 14:56:15.000           23.786             60.312    20572.473700
                  14 Sep 2022 15:03:45.000           27.738             57.449    20717.376971
                  14 Sep 2022 15:11:15.000           31.375             54.628    20872.907406
                  14 Sep 2022 15:18:45.000           34.783             51.859    21037.908377
                  14 Sep 2022 15:26:15.000           38.022             49.147    21211.279772
                  14 Sep 2022 15:33:45.000           41.136             46.495    21391.988161
                  14 Sep 2022 15:41:15.000           44.156             43.904    21579.074411
                  14 Sep 2022 15:48:45.000           47.106             41.375    21771.659260
                  14 Sep 2022 15:56:15.000           50.001             38.907    21968.946902
                  14 Sep 2022 16:03:45.000           52.855             36.498    22170.226562
                  14 Sep 2022 16:11:15.000           55.678             34.147    22374.872781
                  14 Sep 2022 16:18:45.000           58.475             31.850    22582.343919
                  14 Sep 2022 16:24:54.936           60.760             30.000    22754.690470

Global Statistics
-----------------
Min Elevation     14 Sep 2022 11:56:15.822          205.638             30.000    22576.672247
Max Elevation     14 Sep 2022 13:55:13.496          301.287             79.066    19940.753514
Mean Elevation                                                          55.439                
Min Range         14 Sep 2022 13:54:00.918          297.963             79.050    19940.475514
Max Range         14 Sep 2022 16:24:54.936           60.760             30.000    22754.690484
Mean Range                                                                        20988.027150
