target/classes/ECEF/AccessRandom8/svn-76AER.txt

                                                                          24 Dec 2022 11:39:55
Civil Air Patrol Use Only
Facility-Xian-Sensor-Sensor1-To-Satellite-gps-svn76:  Inview Azimuth, Elevation, & Range


Sensor1-To-gps-svn76 - AER reported in the object's default AER frame
---------------------------------------------------------------------
                         Time (UTCG)          Azimuth (deg)    Elevation (deg)     Range (km) 
                  ------------------------    -------------    ---------------    ------------
                  14 Sep 2022 07:53:10.587          282.727             38.000    22324.764903
                  14 Sep 2022 07:54:10.000          283.194             38.262    22305.520940
                  14 Sep 2022 07:55:10.000          283.668             38.527    22286.196213
                  14 Sep 2022 07:56:10.000          284.143             38.790    22266.980964
                  14 Sep 2022 07:57:10.000          284.621             39.054    22247.874788
                  14 Sep 2022 07:58:10.000          285.101             39.317    22228.877288
                  14 Sep 2022 07:59:10.000          285.582             39.580    22209.988062
                  14 Sep 2022 08:00:10.000          286.066             39.842    22191.206723
                  14 Sep 2022 08:01:10.000          286.551             40.104    22172.532881
                  14 Sep 2022 08:02:10.000          287.038             40.365    22153.966151
                  14 Sep 2022 08:03:10.000          287.528             40.626    22135.506156
                  14 Sep 2022 08:04:10.000          288.019             40.887    22117.152520
                  14 Sep 2022 08:05:10.000          288.512             41.147    22098.904883
                  14 Sep 2022 08:06:10.000          289.008             41.407    22080.762881
                  14 Sep 2022 08:07:10.000          289.505             41.666    22062.726161
                  14 Sep 2022 08:08:10.000          290.005             41.925    22044.794376
                  14 Sep 2022 08:09:10.000          290.507             42.184    22026.967186
                  14 Sep 2022 08:10:10.000          291.010             42.442    22009.244259
                  14 Sep 2022 08:11:10.000          291.516             42.700    21991.625271
                  14 Sep 2022 08:12:10.000          292.025             42.957    21974.109909
                  14 Sep 2022 08:13:10.000          292.535             43.214    21956.697861
                  14 Sep 2022 08:14:10.000          293.047             43.470    21939.388830
                  14 Sep 2022 08:15:10.000          293.562             43.726    21922.182526
                  14 Sep 2022 08:16:10.000          294.079             43.982    21905.078671
                  14 Sep 2022 08:17:10.000          294.598             44.237    21888.076996
                  14 Sep 2022 08:18:10.000          295.120             44.492    21871.177237
                  14 Sep 2022 08:19:10.000          295.644             44.747    21854.379146
                  14 Sep 2022 08:20:10.000          296.170             45.001    21837.682486
                  14 Sep 2022 08:21:10.000          296.699             45.255    21821.087025
                  14 Sep 2022 08:22:10.000          297.230             45.508    21804.592551
                  14 Sep 2022 08:23:10.000          297.764             45.761    21788.198854
                  14 Sep 2022 08:24:10.000          298.300             46.013    21771.905745
                  14 Sep 2022 08:25:10.000          298.839             46.265    21755.713039
                  14 Sep 2022 08:26:10.000          299.380             46.517    21739.620571
                  14 Sep 2022 08:27:10.000          299.924             46.768    21723.628183
                  14 Sep 2022 08:28:10.000          300.470             47.019    21707.735730
                  14 Sep 2022 08:29:10.000          301.019             47.269    21691.943085
                  14 Sep 2022 08:30:10.000          301.571             47.519    21676.250131
                  14 Sep 2022 08:31:10.000          302.125             47.769    21660.656764
                  14 Sep 2022 08:32:10.000          302.683             48.018    21645.162894
                  14 Sep 2022 08:33:10.000          303.243             48.267    21629.768451
                  14 Sep 2022 08:34:10.000          303.806             48.515    21614.473371
                  14 Sep 2022 08:35:10.000          304.372             48.763    21599.277611
                  14 Sep 2022 08:36:10.000          304.940             49.010    21584.181140
                  14 Sep 2022 08:37:10.000          305.512             49.257    21569.183942
                  14 Sep 2022 08:38:10.000          306.087             49.503    21554.286018
                  14 Sep 2022 08:39:10.000          306.665             49.749    21539.487383
                  14 Sep 2022 08:40:10.000          307.246             49.995    21524.788071
                  14 Sep 2022 08:41:10.000          307.831             50.240    21510.188127
                  14 Sep 2022 08:42:10.000          308.418             50.484    21495.687617
                  14 Sep 2022 08:43:10.000          309.009             50.728    21481.286623
                  14 Sep 2022 08:44:10.000          309.604             50.972    21466.985239
                  14 Sep 2022 08:45:10.000          310.201             51.215    21452.783580
                  14 Sep 2022 08:46:10.000          310.803             51.457    21438.681777
                  14 Sep 2022 08:47:10.000          311.407             51.699    21424.679982
                  14 Sep 2022 08:48:10.000          312.016             51.940    21410.778356
                  14 Sep 2022 08:49:10.000          312.628             52.181    21396.977084
                  14 Sep 2022 08:50:10.000          313.243             52.421    21383.276369
                  14 Sep 2022 08:51:10.000          313.863             52.661    21369.676427
                  14 Sep 2022 08:52:10.000          314.486             52.900    21356.177499
                  14 Sep 2022 08:53:10.000          315.114             53.139    21342.779835
                  14 Sep 2022 08:54:10.000          315.745             53.376    21329.483714
                  14 Sep 2022 08:55:10.000          316.380             53.614    21316.289424
                  14 Sep 2022 08:56:10.000          317.020             53.850    21303.197278
                  14 Sep 2022 08:57:10.000          317.664             54.086    21290.207605
                  14 Sep 2022 08:58:10.000          318.312             54.321    21277.320752
                  14 Sep 2022 08:59:10.000          318.965             54.555    21264.537088
                  14 Sep 2022 09:00:10.000          319.622             54.789    21251.856998
                  14 Sep 2022 09:01:10.000          320.283             55.022    21239.280887
                  14 Sep 2022 09:02:10.000          320.950             55.254    21226.809180
                  14 Sep 2022 09:03:10.000          321.620             55.486    21214.442322
                  14 Sep 2022 09:04:10.000          322.296             55.716    21202.180774
                  14 Sep 2022 09:05:10.000          322.977             55.946    21190.025021
                  14 Sep 2022 09:06:10.000          323.663             56.175    21177.975565
                  14 Sep 2022 09:07:10.000          324.354             56.403    21166.032926
                  14 Sep 2022 09:08:10.000          325.050             56.630    21154.197647
                  14 Sep 2022 09:09:10.000          325.751             56.856    21142.470288
                  14 Sep 2022 09:10:10.000          326.458             57.081    21130.851431
                  14 Sep 2022 09:11:10.000          327.170             57.305    21119.341675
                  14 Sep 2022 09:12:10.000          327.888             57.528    21107.941643
                  14 Sep 2022 09:13:10.000          328.612             57.750    21096.651973
                  14 Sep 2022 09:14:10.000          329.341             57.971    21085.473324
                  14 Sep 2022 09:15:10.000          330.076             58.191    21074.406377
                  14 Sep 2022 09:16:10.000          330.818             58.410    21063.451833
                  14 Sep 2022 09:17:10.000          331.565             58.627    21052.610407
                  14 Sep 2022 09:18:10.000          332.319             58.843    21041.882841
                  14 Sep 2022 09:19:10.000          333.079             59.058    21031.269893
                  14 Sep 2022 09:20:10.000          333.846             59.272    21020.772339
                  14 Sep 2022 09:21:10.000          334.619             59.484    21010.390981
                  14 Sep 2022 09:22:10.000          335.399             59.695    21000.126632
                  14 Sep 2022 09:23:10.000          336.186             59.904    20989.980131
                  14 Sep 2022 09:24:10.000          336.979             60.112    20979.952334
                  14 Sep 2022 09:25:10.000          337.780             60.318    20970.044116
                  14 Sep 2022 09:26:10.000          338.588             60.523    20960.256373
                  14 Sep 2022 09:27:10.000          339.404             60.726    20950.590019
                  14 Sep 2022 09:28:10.000          340.226             60.927    20941.045985
                  14 Sep 2022 09:29:10.000          341.057             61.126    20931.625225
                  14 Sep 2022 09:30:10.000          341.894             61.324    20922.328709
                  14 Sep 2022 09:31:10.000          342.740             61.520    20913.157427
                  14 Sep 2022 09:32:10.000          343.594             61.713    20904.112387
                  14 Sep 2022 09:33:10.000          344.455             61.905    20895.194616
                  14 Sep 2022 09:34:10.000          345.325             62.095    20886.405159
                  14 Sep 2022 09:35:10.000          346.203             62.282    20877.745078
                  14 Sep 2022 09:36:10.000          347.089             62.468    20869.215455
                  14 Sep 2022 09:37:10.000          347.983             62.651    20860.817389
                  14 Sep 2022 09:38:10.000          348.886             62.832    20852.551996
                  14 Sep 2022 09:39:10.000          349.798             63.010    20844.420410
                  14 Sep 2022 09:40:10.000          350.718             63.186    20836.423783
                  14 Sep 2022 09:41:10.000          351.647             63.359    20828.563282
                  14 Sep 2022 09:42:10.000          352.585             63.529    20820.840092
                  14 Sep 2022 09:43:10.000          353.532             63.697    20813.255416
                  14 Sep 2022 09:44:10.000          354.487             63.862    20805.810471
                  14 Sep 2022 09:45:10.000          355.452             64.024    20798.506492
                  14 Sep 2022 09:46:10.000          356.426             64.183    20791.344727
                  14 Sep 2022 09:47:10.000          357.409             64.339    20784.326444
                  14 Sep 2022 09:48:10.000          358.401             64.492    20777.452923
                  14 Sep 2022 09:49:10.000          359.402             64.642    20770.725461
                  14 Sep 2022 09:50:10.000            0.412             64.788    20764.145368
                  14 Sep 2022 09:51:10.000            1.432             64.931    20757.713969
                  14 Sep 2022 09:52:10.000            2.461             65.070    20751.432606
                  14 Sep 2022 09:53:10.000            3.498             65.206    20745.302631
                  14 Sep 2022 09:54:10.000            4.545             65.338    20739.325411
                  14 Sep 2022 09:55:10.000            5.601             65.466    20733.502328
                  14 Sep 2022 09:56:10.000            6.666             65.591    20727.834776
                  14 Sep 2022 09:57:10.000            7.739             65.711    20722.324160
                  14 Sep 2022 09:58:10.000            8.822             65.827    20716.971899
                  14 Sep 2022 09:59:10.000            9.913             65.940    20711.779425
                  14 Sep 2022 10:00:10.000           11.012             66.047    20706.748178
                  14 Sep 2022 10:01:10.000           12.120             66.151    20701.879613
                  14 Sep 2022 10:02:10.000           13.236             66.250    20697.175195
                  14 Sep 2022 10:03:10.000           14.360             66.344    20692.636397
                  14 Sep 2022 10:04:10.000           15.492             66.434    20688.264706
                  14 Sep 2022 10:05:10.000           16.632             66.519    20684.061615
                  14 Sep 2022 10:06:10.000           17.778             66.599    20680.028629
                  14 Sep 2022 10:07:10.000           18.932             66.674    20676.167262
                  14 Sep 2022 10:08:10.000           20.092             66.744    20672.479034
                  14 Sep 2022 10:09:10.000           21.259             66.809    20668.965475
                  14 Sep 2022 10:10:10.000           22.432             66.869    20665.628123
                  14 Sep 2022 10:11:10.000           23.611             66.923    20662.468521
                  14 Sep 2022 10:12:10.000           24.795             66.972    20659.488221
                  14 Sep 2022 10:13:10.000           25.984             67.016    20656.688781
                  14 Sep 2022 10:14:10.000           27.178             67.054    20654.071763
                  14 Sep 2022 10:15:10.000           28.377             67.087    20651.638738
                  14 Sep 2022 10:16:10.000           29.578             67.114    20649.391278
                  14 Sep 2022 10:17:10.000           30.784             67.135    20647.330962
                  14 Sep 2022 10:18:10.000           31.992             67.151    20645.459371
                  14 Sep 2022 10:19:10.000           33.203             67.160    20643.778092
                  14 Sep 2022 10:20:10.000           34.416             67.164    20642.288713
                  14 Sep 2022 10:21:10.000           35.630             67.162    20640.992827
                  14 Sep 2022 10:22:10.000           36.845             67.153    20639.892024
                  14 Sep 2022 10:23:10.000           38.061             67.139    20638.987902
                  14 Sep 2022 10:24:10.000           39.277             67.119    20638.282054
                  14 Sep 2022 10:25:10.000           40.493             67.092    20637.776077
                  14 Sep 2022 10:26:10.000           41.707             67.060    20637.471568
                  14 Sep 2022 10:27:10.000           42.920             67.021    20637.370122
                  14 Sep 2022 10:28:10.000           44.131             66.977    20637.473334
                  14 Sep 2022 10:29:10.000           45.340             66.926    20637.782796
                  14 Sep 2022 10:30:10.000           46.545             66.869    20638.300099
                  14 Sep 2022 10:31:10.000           47.747             66.806    20639.026830
                  14 Sep 2022 10:32:10.000           48.945             66.736    20639.964575
                  14 Sep 2022 10:33:10.000           50.139             66.661    20641.114913
                  14 Sep 2022 10:34:10.000           51.328             66.579    20642.479423
                  14 Sep 2022 10:35:10.000           52.511             66.492    20644.059673
                  14 Sep 2022 10:36:10.000           53.689             66.398    20645.857233
                  14 Sep 2022 10:37:10.000           54.860             66.298    20647.873659
                  14 Sep 2022 10:38:10.000           56.025             66.192    20650.110506
                  14 Sep 2022 10:39:10.000           57.183             66.081    20652.569322
                  14 Sep 2022 10:40:10.000           58.333             65.963    20655.251642
                  14 Sep 2022 10:41:10.000           59.476             65.839    20658.158997
                  14 Sep 2022 10:42:10.000           60.611             65.710    20661.292909
                  14 Sep 2022 10:43:10.000           61.737             65.575    20664.654889
                  14 Sep 2022 10:44:10.000           62.855             65.434    20668.246439
                  14 Sep 2022 10:45:10.000           63.963             65.287    20672.069048
                  14 Sep 2022 10:46:10.000           65.063             65.135    20676.124198
                  14 Sep 2022 10:47:10.000           66.152             64.978    20680.413357
                  14 Sep 2022 10:48:10.000           67.233             64.815    20684.937979
                  14 Sep 2022 10:49:10.000           68.303             64.646    20689.699508
                  14 Sep 2022 10:50:10.000           69.363             64.472    20694.699372
                  14 Sep 2022 10:51:10.000           70.413             64.293    20699.938986
                  14 Sep 2022 10:52:10.000           71.452             64.109    20705.419752
                  14 Sep 2022 10:53:10.000           72.481             63.919    20711.143056
                  14 Sep 2022 10:54:10.000           73.499             63.725    20717.110264
                  14 Sep 2022 10:55:10.000           74.507             63.525    20723.322731
                  14 Sep 2022 10:56:10.000           75.503             63.321    20729.781792
                  14 Sep 2022 10:57:10.000           76.489             63.112    20736.488766
                  14 Sep 2022 10:58:10.000           77.464             62.898    20743.444956
                  14 Sep 2022 10:59:10.000           78.427             62.679    20750.651641
                  14 Sep 2022 11:00:10.000           79.380             62.456    20758.110084
                  14 Sep 2022 11:01:10.000           80.321             62.229    20765.821530
                  14 Sep 2022 11:02:10.000           81.252             61.997    20773.787199
                  14 Sep 2022 11:03:10.000           82.171             61.761    20782.008294
                  14 Sep 2022 11:04:10.000           83.079             61.520    20790.485998
                  14 Sep 2022 11:05:10.000           83.977             61.275    20799.221465
                  14 Sep 2022 11:06:10.000           84.863             61.027    20808.215834
                  14 Sep 2022 11:07:10.000           85.739             60.774    20817.470217
                  14 Sep 2022 11:08:10.000           86.603             60.517    20826.985705
                  14 Sep 2022 11:09:10.000           87.457             60.256    20836.763361
                  14 Sep 2022 11:10:10.000           88.301             59.992    20846.804230
                  14 Sep 2022 11:11:10.000           89.133             59.724    20857.109326
                  14 Sep 2022 11:12:10.000           89.955             59.452    20867.679638
                  14 Sep 2022 11:13:10.000           90.767             59.177    20878.516134
                  14 Sep 2022 11:14:10.000           91.568             58.898    20889.619768
                  14 Sep 2022 11:15:10.000           92.359             58.616    20900.991414
                  14 Sep 2022 11:16:10.000           93.140             58.331    20912.631974
                  14 Sep 2022 11:17:10.000           93.911             58.042    20924.542305
                  14 Sep 2022 11:18:10.000           94.672             57.750    20936.723233
                  14 Sep 2022 11:19:10.000           95.423             57.455    20949.175556
                  14 Sep 2022 11:20:10.000           96.165             57.157    20961.900045
                  14 Sep 2022 11:21:10.000           96.896             56.856    20974.897437
                  14 Sep 2022 11:22:10.000           97.619             56.552    20988.168440
                  14 Sep 2022 11:23:10.000           98.332             56.245    21001.713736
                  14 Sep 2022 11:24:10.000           99.036             55.935    21015.533969
                  14 Sep 2022 11:25:10.000           99.731             55.623    21029.629760
                  14 Sep 2022 11:26:10.000          100.417             55.308    21044.001687
                  14 Sep 2022 11:27:10.000          101.094             54.990    21058.650307
                  14 Sep 2022 11:28:10.000          101.762             54.670    21073.576137
                  14 Sep 2022 11:29:10.000          102.422             54.347    21088.779665
                  14 Sep 2022 11:30:10.000          103.073             54.022    21104.261345
                  14 Sep 2022 11:31:10.000          103.716             53.694    21120.021596
                  14 Sep 2022 11:32:10.000          104.350             53.364    21136.060804
                  14 Sep 2022 11:33:10.000          104.977             53.032    21152.379319
                  14 Sep 2022 11:34:10.000          105.596             52.697    21168.977461
                  14 Sep 2022 11:35:10.000          106.206             52.360    21185.855510
                  14 Sep 2022 11:36:10.000          106.809             52.021    21203.013714
                  14 Sep 2022 11:37:10.000          107.405             51.680    21220.452287
                  14 Sep 2022 11:38:10.000          107.992             51.337    21238.171401
                  14 Sep 2022 11:39:10.000          108.573             50.993    21256.171197
                  14 Sep 2022 11:40:10.000          109.146             50.646    21274.451780
                  14 Sep 2022 11:41:10.000          109.712             50.297    21293.013217
                  14 Sep 2022 11:42:10.000          110.271             49.946    21311.855536
                  14 Sep 2022 11:43:10.000          110.823             49.594    21330.978735
                  14 Sep 2022 11:44:10.000          111.368             49.239    21350.382769
                  14 Sep 2022 11:45:10.000          111.906             48.884    21370.067555
                  14 Sep 2022 11:46:10.000          112.438             48.526    21390.032980
                  14 Sep 2022 11:47:10.000          112.963             48.167    21410.278882
                  14 Sep 2022 11:48:10.000          113.482             47.806    21430.805072
                  14 Sep 2022 11:49:10.000          113.995             47.443    21451.611317
                  14 Sep 2022 11:50:10.000          114.501             47.079    21472.697348
                  14 Sep 2022 11:51:10.000          115.001             46.714    21494.062858
                  14 Sep 2022 11:52:10.000          115.495             46.347    21515.707500
                  14 Sep 2022 11:53:10.000          115.983             45.979    21537.630891
                  14 Sep 2022 11:54:10.000          116.465             45.609    21559.832606
                  14 Sep 2022 11:55:10.000          116.941             45.238    21582.312188
                  14 Sep 2022 11:56:10.000          117.412             44.866    21605.069132
                  14 Sep 2022 11:57:10.000          117.877             44.493    21628.102905
                  14 Sep 2022 11:58:10.000          118.336             44.118    21651.412926
                  14 Sep 2022 11:59:10.000          118.790             43.742    21674.998580
                  14 Sep 2022 12:00:10.000          119.239             43.365    21698.859213
                  14 Sep 2022 12:01:10.000          119.682             42.987    21722.994133
                  14 Sep 2022 12:02:10.000          120.120             42.607    21747.402608
                  14 Sep 2022 12:03:10.000          120.553             42.227    21772.083867
                  14 Sep 2022 12:04:10.000          120.981             41.845    21797.037101
                  14 Sep 2022 12:05:10.000          121.404             41.463    21822.261460
                  14 Sep 2022 12:06:10.000          121.822             41.079    21847.756062
                  14 Sep 2022 12:07:10.000          122.235             40.695    21873.519979
                  14 Sep 2022 12:08:10.000          122.643             40.310    21899.552253
                  14 Sep 2022 12:09:10.000          123.047             39.924    21925.851876
                  14 Sep 2022 12:10:10.000          123.445             39.536    21952.417813
                  14 Sep 2022 12:11:10.000          123.840             39.148    21979.248985
                  14 Sep 2022 12:12:10.000          124.229             38.760    22006.344277
                  14 Sep 2022 12:13:10.000          124.614             38.370    22033.702537
                  14 Sep 2022 12:14:06.907          124.976             38.000    22059.892194

Global Statistics
-----------------
Min Elevation     14 Sep 2022 12:14:06.907          124.976             38.000    22059.892214
Max Elevation     14 Sep 2022 10:20:17.334           34.564             67.164    20642.119893
Mean Elevation                                                          55.599                
Min Range         14 Sep 2022 10:27:10.000           42.920             67.021    20637.370126
Max Range         14 Sep 2022 07:53:10.587          282.727             38.000    22324.764903
Mean Range                                                                        21187.560117
