target/classes/SingleSat/PRN3S.txt

gps-svn69-To-Xian - AER reported in the object's default AER frame
------------------------------------------------------------------
                         Time (UTCG)          Azimuth (deg)    Elevation (deg)     Range (km) 
                  ------------------------    -------------    ---------------    ------------
                  14 Sep 2022 11:09:04.968          333.419            -76.913    23611.809946
                  14 Sep 2022 11:09:05.000          333.419            -76.913    23611.792960
                  14 Sep 2022 11:09:06.000          333.414            -76.913    23611.260837
                  14 Sep 2022 11:09:07.000          333.408            -76.914    23610.728791
                  14 Sep 2022 11:09:08.000          333.403            -76.914    23610.196822
                  14 Sep 2022 11:09:09.000          333.397            -76.915    23609.664932
                  14 Sep 2022 11:09:10.000          333.392            -76.915    23609.133119
                  14 Sep 2022 11:09:11.000          333.386            -76.916    23608.601383
                  14 Sep 2022 11:09:12.000          333.381            -76.916    23608.069725
                  14 Sep 2022 11:09:13.000          333.375            -76.917    23607.538145
                  14 Sep 2022 11:09:14.000          333.370            -76.917    23607.006643
                  14 Sep 2022 11:09:15.000          333.364            -76.917    23606.475218
                  14 Sep 2022 11:09:16.000          333.359            -76.918    23605.943871
                  14 Sep 2022 11:09:17.000          333.353            -76.918    23605.412602
                  14 Sep 2022 11:09:18.000          333.348            -76.919    23604.881411
                  14 Sep 2022 11:09:19.000          333.342            -76.919    23604.350298
                  14 Sep 2022 11:09:20.000          333.337            -76.920    23603.819262
                  14 Sep 2022 11:09:21.000          333.331            -76.920    23603.288304
                  14 Sep 2022 11:09:22.000          333.326            -76.921    23602.757424
                  14 Sep 2022 11:09:23.000          333.320            -76.921    23602.226622
                  14 Sep 2022 11:09:24.000          333.315            -76.922    23601.695898
                  14 Sep 2022 11:09:25.000          333.309            -76.922    23601.165252
                  14 Sep 2022 11:09:26.000          333.304            -76.923    23600.634683
                  14 Sep 2022 11:09:27.000          333.298            -76.923    23600.104193
                  14 Sep 2022 11:09:28.000          333.293            -76.924    23599.573781
                  14 Sep 2022 11:09:29.000          333.287            -76.924    23599.043446
                  14 Sep 2022 11:09:30.000          333.282            -76.925    23598.513190
                  14 Sep 2022 11:09:31.000          333.276            -76.925    23597.983012
                  14 Sep 2022 11:09:32.000          333.271            -76.926    23597.452911
                  14 Sep 2022 11:09:33.000          333.265            -76.926    23596.922889
                  14 Sep 2022 11:09:34.000          333.259            -76.927    23596.392945
                  14 Sep 2022 11:09:35.000          333.254            -76.927    23595.863079
                  14 Sep 2022 11:09:36.000          333.248            -76.928    23595.333291
                  14 Sep 2022 11:09:37.000          333.243            -76.928    23594.803582
                  14 Sep 2022 11:09:38.000          333.237            -76.929    23594.273950
                  14 Sep 2022 11:09:39.000          333.232            -76.929    23593.744397
                  14 Sep 2022 11:09:40.000          333.226            -76.930    23593.214921
                  14 Sep 2022 11:09:41.000          333.221            -76.930    23592.685525
                  14 Sep 2022 11:09:42.000          333.215            -76.931    23592.156206
                  14 Sep 2022 11:09:43.000          333.210            -76.931    23591.626965
                  14 Sep 2022 11:09:44.000          333.204            -76.932    23591.097803
                  14 Sep 2022 11:09:45.000          333.199            -76.932    23590.568719
                  14 Sep 2022 11:09:46.000          333.193            -76.933    23590.039714
                  14 Sep 2022 11:09:47.000          333.188            -76.933    23589.510786
                  14 Sep 2022 11:09:48.000          333.182            -76.933    23588.981938
                  14 Sep 2022 11:09:49.000          333.177            -76.934    23588.453167
                  14 Sep 2022 11:09:50.000          333.171            -76.934    23587.924475
                  14 Sep 2022 11:09:51.000          333.166            -76.935    23587.395861
                  14 Sep 2022 11:09:52.000          333.160            -76.935    23586.867326
                  14 Sep 2022 11:09:53.000          333.154            -76.936    23586.338869
                  14 Sep 2022 11:09:54.000          333.149            -76.936    23585.810491
                  14 Sep 2022 11:09:55.000          333.143            -76.937    23585.282191
                  14 Sep 2022 11:09:56.000          333.138            -76.937    23584.753969
                  14 Sep 2022 11:09:57.000          333.132            -76.938    23584.225826
                  14 Sep 2022 11:09:58.000          333.127            -76.938    23583.697762
                  14 Sep 2022 11:09:59.000          333.121            -76.939    23583.169776
                  14 Sep 2022 11:10:00.000          333.116            -76.939    23582.641869
                  14 Sep 2022 11:10:01.000          333.110            -76.940    23582.114040
                  14 Sep 2022 11:10:02.000          333.105            -76.940    23581.586290
                  14 Sep 2022 11:10:03.000          333.099            -76.941    23581.058619
                  14 Sep 2022 11:10:04.000          333.094            -76.941    23580.531026
                  14 Sep 2022 11:10:05.000          333.088            -76.942    23580.003511
                  14 Sep 2022 11:10:06.000          333.082            -76.942    23579.476076
                  14 Sep 2022 11:10:07.000          333.077            -76.943    23578.948719
                  14 Sep 2022 11:10:08.000          333.071            -76.943    23578.421441
                  14 Sep 2022 11:10:09.000          333.066            -76.944    23577.894242
                  14 Sep 2022 11:10:10.000          333.060            -76.944    23577.367122
                  14 Sep 2022 11:10:11.000          333.055            -76.945    23576.840080
                  14 Sep 2022 11:10:12.000          333.049            -76.945    23576.313117
                  14 Sep 2022 11:10:13.000          333.044            -76.946    23575.786232
                  14 Sep 2022 11:10:14.000          333.038            -76.946    23575.259427
                  14 Sep 2022 11:10:15.000          333.032            -76.947    23574.732701
                  14 Sep 2022 11:10:16.000          333.027            -76.947    23574.206053
                  14 Sep 2022 11:10:17.000          333.021            -76.948    23573.679484
                  14 Sep 2022 11:10:18.000          333.016            -76.948    23573.152994
                  14 Sep 2022 11:10:19.000          333.010            -76.949    23572.626583
                  14 Sep 2022 11:10:20.000          333.005            -76.949    23572.100251
                  14 Sep 2022 11:10:21.000          332.999            -76.950    23571.573998
                  14 Sep 2022 11:10:22.000          332.994            -76.950    23571.047824
                  14 Sep 2022 11:10:23.000          332.988            -76.951    23570.521729
                  14 Sep 2022 11:10:24.000          332.982            -76.951    23569.995713
                  14 Sep 2022 11:10:25.000          332.977            -76.952    23569.469776
                  14 Sep 2022 11:10:26.000          332.971            -76.952    23568.943918
                  14 Sep 2022 11:10:27.000          332.966            -76.952    23568.418139
                  14 Sep 2022 11:10:28.000          332.960            -76.953    23567.892439
                  14 Sep 2022 11:10:29.000          332.955            -76.953    23567.366819
                  14 Sep 2022 11:10:30.000          332.949            -76.954    23566.841277
                  14 Sep 2022 11:10:31.000          332.943            -76.954    23566.315815
                  14 Sep 2022 11:10:32.000          332.938            -76.955    23565.790431
                  14 Sep 2022 11:10:33.000          332.932            -76.955    23565.265127
                  14 Sep 2022 11:10:34.000          332.927            -76.956    23564.739902
                  14 Sep 2022 11:10:35.000          332.921            -76.956    23564.214757
                  14 Sep 2022 11:10:36.000          332.916            -76.957    23563.689690
                  14 Sep 2022 11:10:37.000          332.910            -76.957    23563.164703
                  14 Sep 2022 11:10:38.000          332.904            -76.958    23562.639795
                  14 Sep 2022 11:10:39.000          332.899            -76.958    23562.114966
                  14 Sep 2022 11:10:40.000          332.893            -76.959    23561.590217
                  14 Sep 2022 11:10:41.000          332.888            -76.959    23561.065547
                  14 Sep 2022 11:10:42.000          332.882            -76.960    23560.540956
                  14 Sep 2022 11:10:43.000          332.877            -76.960    23560.016445
                  14 Sep 2022 11:10:44.000          332.871            -76.961    23559.492013
                  14 Sep 2022 11:10:45.000          332.865            -76.961    23558.967660
                  14 Sep 2022 11:10:46.000          332.860            -76.962    23558.443387
                  14 Sep 2022 11:10:47.000          332.854            -76.962    23557.919193
                  14 Sep 2022 11:10:48.000          332.849            -76.963    23557.395079
                  14 Sep 2022 11:10:49.000          332.843            -76.963    23556.871044
                  14 Sep 2022 11:10:50.000          332.837            -76.964    23556.347089
                  14 Sep 2022 11:10:51.000          332.832            -76.964    23555.823213
                  14 Sep 2022 11:10:52.000          332.826            -76.965    23555.299417
                  14 Sep 2022 11:10:53.000          332.821            -76.965    23554.775700
                  14 Sep 2022 11:10:54.000          332.815            -76.966    23554.252063
                  14 Sep 2022 11:10:55.000          332.809            -76.966    23553.728506
                  14 Sep 2022 11:10:56.000          332.804            -76.967    23553.205028
                  14 Sep 2022 11:10:57.000          332.798            -76.967    23552.681629
                  14 Sep 2022 11:10:58.000          332.793            -76.968    23552.158311
                  14 Sep 2022 11:10:59.000          332.787            -76.968    23551.635072
                  14 Sep 2022 11:11:00.000          332.781            -76.969    23551.111912
                  14 Sep 2022 11:11:01.000          332.776            -76.969    23550.588833
                  14 Sep 2022 11:11:02.000          332.770            -76.970    23550.065833
                  14 Sep 2022 11:11:03.000          332.765            -76.970    23549.542913
                  14 Sep 2022 11:11:04.000          332.759            -76.971    23549.020072
                  14 Sep 2022 11:11:05.000          332.753            -76.971    23548.497311
                  14 Sep 2022 11:11:06.000          332.748            -76.972    23547.974630
                  14 Sep 2022 11:11:07.000          332.742            -76.972    23547.452029
                  14 Sep 2022 11:11:08.000          332.737            -76.973    23546.929508
                  14 Sep 2022 11:11:09.000          332.731            -76.973    23546.407066
                  14 Sep 2022 11:11:10.000          332.725            -76.974    23545.884705
                  14 Sep 2022 11:11:11.000          332.720            -76.974    23545.362423
                  14 Sep 2022 11:11:12.000          332.714            -76.975    23544.840221
                  14 Sep 2022 11:11:13.000          332.709            -76.975    23544.318099
                  14 Sep 2022 11:11:14.000          332.703            -76.976    23543.796058
                  14 Sep 2022 11:11:15.000          332.697            -76.976    23543.274095
                  14 Sep 2022 11:11:16.000          332.692            -76.977    23542.752213
                  14 Sep 2022 11:11:17.000          332.686            -76.977    23542.230411
                  14 Sep 2022 11:11:18.000          332.681            -76.978    23541.708689
                  14 Sep 2022 11:11:19.000          332.675            -76.978    23541.187047
                  14 Sep 2022 11:11:20.000          332.669            -76.979    23540.665485
                  14 Sep 2022 11:11:21.000          332.664            -76.979    23540.144003
                  14 Sep 2022 11:11:22.000          332.658            -76.980    23539.622601
                  14 Sep 2022 11:11:23.000          332.652            -76.980    23539.101280
                  14 Sep 2022 11:11:24.000          332.647            -76.981    23538.580038
                  14 Sep 2022 11:11:25.000          332.641            -76.981    23538.058876
                  14 Sep 2022 11:11:26.000          332.636            -76.982    23537.537795
                  14 Sep 2022 11:11:27.000          332.630            -76.982    23537.016794
                  14 Sep 2022 11:11:28.000          332.624            -76.983    23536.495873
                  14 Sep 2022 11:11:29.000          332.619            -76.983    23535.975032
                  14 Sep 2022 11:11:30.000          332.613            -76.983    23535.454271
                  14 Sep 2022 11:11:31.000          332.607            -76.984    23534.933591
                  14 Sep 2022 11:11:32.000          332.602            -76.984    23534.412991
                  14 Sep 2022 11:11:33.000          332.596            -76.985    23533.892471
                  14 Sep 2022 11:11:34.000          332.591            -76.985    23533.372032
                  14 Sep 2022 11:11:35.000          332.585            -76.986    23532.851672
                  14 Sep 2022 11:11:36.000          332.579            -76.986    23532.331393
                  14 Sep 2022 11:11:37.000          332.574            -76.987    23531.811195
                  14 Sep 2022 11:11:38.000          332.568            -76.987    23531.291077
                  14 Sep 2022 11:11:39.000          332.562            -76.988    23530.771039
                  14 Sep 2022 11:11:40.000          332.557            -76.988    23530.251082
                  14 Sep 2022 11:11:41.000          332.551            -76.989    23529.731205
                  14 Sep 2022 11:11:42.000          332.545            -76.989    23529.211408
                  14 Sep 2022 11:11:43.000          332.540            -76.990    23528.691692
                  14 Sep 2022 11:11:44.000          332.534            -76.990    23528.172057
                  14 Sep 2022 11:11:45.000          332.529            -76.991    23527.652502
                  14 Sep 2022 11:11:46.000          332.523            -76.991    23527.133027
                  14 Sep 2022 11:11:47.000          332.517            -76.992    23526.613633
                  14 Sep 2022 11:11:48.000          332.512            -76.992    23526.094320
                  14 Sep 2022 11:11:49.000          332.506            -76.993    23525.575087
                  14 Sep 2022 11:11:50.000          332.500            -76.993    23525.055935
                  14 Sep 2022 11:11:51.000          332.495            -76.994    23524.536863
                  14 Sep 2022 11:11:52.000          332.489            -76.994    23524.017872
                  14 Sep 2022 11:11:53.000          332.483            -76.995    23523.498962
                  14 Sep 2022 11:11:54.000          332.478            -76.995    23522.980132
                  14 Sep 2022 11:11:55.000          332.472            -76.996    23522.461383
                  14 Sep 2022 11:11:56.000          332.466            -76.996    23521.942715
                  14 Sep 2022 11:11:57.000          332.461            -76.997    23521.424127
                  14 Sep 2022 11:11:58.000          332.455            -76.997    23520.905620
                  14 Sep 2022 11:11:59.000          332.449            -76.998    23520.387194
                  14 Sep 2022 11:12:00.000          332.444            -76.998    23519.868849
                  14 Sep 2022 11:12:01.000          332.438            -76.999    23519.350584
                  14 Sep 2022 11:12:02.000          332.432            -76.999    23518.832401
                  14 Sep 2022 11:12:03.000          332.427            -77.000    23518.314298
                  14 Sep 2022 11:12:04.000          332.421            -77.000    23517.796276
                  14 Sep 2022 11:12:05.000          332.415            -77.001    23517.278335
                  14 Sep 2022 11:12:06.000          332.410            -77.001    23516.760474
                  14 Sep 2022 11:12:07.000          332.404            -77.002    23516.242695
                  14 Sep 2022 11:12:08.000          332.398            -77.002    23515.724996
                  14 Sep 2022 11:12:09.000          332.393            -77.003    23515.207379
                  14 Sep 2022 11:12:10.000          332.387            -77.003    23514.689842
                  14 Sep 2022 11:12:11.000          332.381            -77.004    23514.172387
                  14 Sep 2022 11:12:12.000          332.376            -77.004    23513.655012
                  14 Sep 2022 11:12:13.000          332.370            -77.005    23513.137718
                  14 Sep 2022 11:12:14.000          332.364            -77.005    23512.620506
                  14 Sep 2022 11:12:15.000          332.359            -77.006    23512.103374
                  14 Sep 2022 11:12:16.000          332.353            -77.006    23511.586324
                  14 Sep 2022 11:12:17.000          332.347            -77.007    23511.069354
                  14 Sep 2022 11:12:18.000          332.342            -77.007    23510.552466
                  14 Sep 2022 11:12:19.000          332.336            -77.008    23510.035659
                  14 Sep 2022 11:12:20.000          332.330            -77.008    23509.518933
                  14 Sep 2022 11:12:21.000          332.325            -77.009    23509.002288
                  14 Sep 2022 11:12:22.000          332.319            -77.009    23508.485724
                  14 Sep 2022 11:12:23.000          332.313            -77.010    23507.969242
                  14 Sep 2022 11:12:24.000          332.308            -77.010    23507.452840
                  14 Sep 2022 11:12:25.000          332.302            -77.011    23506.936521
                  14 Sep 2022 11:12:26.000          332.296            -77.011    23506.420282
                  14 Sep 2022 11:12:27.000          332.291            -77.012    23505.904124
                  14 Sep 2022 11:12:28.000          332.285            -77.012    23505.388048
                  14 Sep 2022 11:12:29.000          332.279            -77.013    23504.872053
                  14 Sep 2022 11:12:30.000          332.274            -77.013    23504.356139
                  14 Sep 2022 11:12:31.000          332.268            -77.014    23503.840307
                  14 Sep 2022 11:12:32.000          332.262            -77.014    23503.324556
                  14 Sep 2022 11:12:33.000          332.257            -77.015    23502.808887
                  14 Sep 2022 11:12:34.000          332.251            -77.015    23502.293298
                  14 Sep 2022 11:12:35.000          332.245            -77.016    23501.777791
                  14 Sep 2022 11:12:36.000          332.239            -77.016    23501.262366
                  14 Sep 2022 11:12:37.000          332.234            -77.017    23500.747022
                  14 Sep 2022 11:12:38.000          332.228            -77.017    23500.231760
                  14 Sep 2022 11:12:39.000          332.222            -77.018    23499.716579
                  14 Sep 2022 11:12:40.000          332.217            -77.018    23499.201480
                  14 Sep 2022 11:12:41.000          332.211            -77.019    23498.686462
                  14 Sep 2022 11:12:42.000          332.205            -77.019    23498.171525
                  14 Sep 2022 11:12:43.000          332.200            -77.020    23497.656671
                  14 Sep 2022 11:12:44.000          332.194            -77.020    23497.141897
                  14 Sep 2022 11:12:45.000          332.188            -77.021    23496.627206
                  14 Sep 2022 11:12:46.000          332.183            -77.021    23496.112596
                  14 Sep 2022 11:12:47.000          332.177            -77.022    23495.598067
                  14 Sep 2022 11:12:48.000          332.171            -77.022    23495.083620
                  14 Sep 2022 11:12:49.000          332.165            -77.023    23494.569255
                  14 Sep 2022 11:12:50.000          332.160            -77.023    23494.054972
                  14 Sep 2022 11:12:51.000          332.154            -77.024    23493.540770
                  14 Sep 2022 11:12:52.000          332.148            -77.024    23493.026650
                  14 Sep 2022 11:12:53.000          332.143            -77.025    23492.512612
                  14 Sep 2022 11:12:54.000          332.137            -77.025    23491.998656
                  14 Sep 2022 11:12:55.000          332.131            -77.026    23491.484781
                  14 Sep 2022 11:12:56.000          332.125            -77.026    23490.970988
                  14 Sep 2022 11:12:57.000          332.120            -77.027    23490.457277
                  14 Sep 2022 11:12:58.000          332.114            -77.027    23489.943648
                  14 Sep 2022 11:12:59.000          332.108            -77.028    23489.430100
                  14 Sep 2022 11:13:00.000          332.103            -77.028    23488.916635
                  14 Sep 2022 11:13:01.000          332.097            -77.029    23488.403251
                  14 Sep 2022 11:13:02.000          332.091            -77.029    23487.889949
                  14 Sep 2022 11:13:03.000          332.085            -77.030    23487.376729
                  14 Sep 2022 11:13:04.000          332.080            -77.030    23486.863592
                  14 Sep 2022 11:13:05.000          332.074            -77.031    23486.350536
                  14 Sep 2022 11:13:06.000          332.068            -77.031    23485.837562
                  14 Sep 2022 11:13:07.000          332.063            -77.032    23485.324670
                  14 Sep 2022 11:13:08.000          332.057            -77.032    23484.811860
                  14 Sep 2022 11:13:09.000          332.051            -77.033    23484.299132
                  14 Sep 2022 11:13:10.000          332.045            -77.033    23483.786486
                  14 Sep 2022 11:13:11.000          332.040            -77.034    23483.273922
                  14 Sep 2022 11:13:12.000          332.034            -77.034    23482.761440
                  14 Sep 2022 11:13:13.000          332.028            -77.035    23482.249041
                  14 Sep 2022 11:13:14.000          332.022            -77.035    23481.736723
                  14 Sep 2022 11:13:15.000          332.017            -77.036    23481.224488
                  14 Sep 2022 11:13:16.000          332.011            -77.036    23480.712335
                  14 Sep 2022 11:13:17.000          332.005            -77.037    23480.200263
                  14 Sep 2022 11:13:18.000          332.000            -77.037    23479.688275
                  14 Sep 2022 11:13:19.000          331.994            -77.038    23479.176368
                  14 Sep 2022 11:13:20.000          331.988            -77.038    23478.664544
                  14 Sep 2022 11:13:21.000          331.982            -77.039    23478.152802
                  14 Sep 2022 11:13:22.000          331.977            -77.039    23477.641142
                  14 Sep 2022 11:13:23.000          331.971            -77.040    23477.129564
                  14 Sep 2022 11:13:24.000          331.965            -77.040    23476.618069
                  14 Sep 2022 11:13:25.000          331.959            -77.041    23476.106656
                  14 Sep 2022 11:13:26.000          331.954            -77.041    23475.595325
                  14 Sep 2022 11:13:27.000          331.948            -77.042    23475.084077
                  14 Sep 2022 11:13:28.000          331.942            -77.042    23474.572911
                  14 Sep 2022 11:13:29.000          331.936            -77.043    23474.061827
                  14 Sep 2022 11:13:30.000          331.931            -77.043    23473.550826
                  14 Sep 2022 11:13:31.000          331.925            -77.044    23473.039908
                  14 Sep 2022 11:13:32.000          331.919            -77.044    23472.529071
                  14 Sep 2022 11:13:33.000          331.913            -77.045    23472.018317
                  14 Sep 2022 11:13:34.000          331.908            -77.045    23471.507646
                  14 Sep 2022 11:13:35.000          331.902            -77.046    23470.997057
                  14 Sep 2022 11:13:36.000          331.896            -77.046    23470.486551
                  14 Sep 2022 11:13:37.000          331.890            -77.047    23469.976127
                  14 Sep 2022 11:13:38.000          331.885            -77.047    23469.465786
                  14 Sep 2022 11:13:39.000          331.879            -77.048    23468.955528
                  14 Sep 2022 11:13:40.000          331.873            -77.049    23468.445352
                  14 Sep 2022 11:13:41.000          331.867            -77.049    23467.935258
                  14 Sep 2022 11:13:42.000          331.862            -77.050    23467.425247
                  14 Sep 2022 11:13:43.000          331.856            -77.050    23466.915319
                  14 Sep 2022 11:13:44.000          331.850            -77.051    23466.405474
                  14 Sep 2022 11:13:45.000          331.844            -77.051    23465.895711
                  14 Sep 2022 11:13:46.000          331.839            -77.052    23465.386031
                  14 Sep 2022 11:13:47.000          331.833            -77.052    23464.876434
                  14 Sep 2022 11:13:48.000          331.827            -77.053    23464.366919
                  14 Sep 2022 11:13:49.000          331.821            -77.053    23463.857487
                  14 Sep 2022 11:13:50.000          331.816            -77.054    23463.348138
                  14 Sep 2022 11:13:51.000          331.810            -77.054    23462.838872
                  14 Sep 2022 11:13:52.000          331.804            -77.055    23462.329688
                  14 Sep 2022 11:13:53.000          331.798            -77.055    23461.820587
                  14 Sep 2022 11:13:54.000          331.792            -77.056    23461.311570
                  14 Sep 2022 11:13:55.000          331.787            -77.056    23460.802635
                  14 Sep 2022 11:13:56.000          331.781            -77.057    23460.293783
                  14 Sep 2022 11:13:57.000          331.775            -77.057    23459.785013
                  14 Sep 2022 11:13:58.000          331.769            -77.058    23459.276327
                  14 Sep 2022 11:13:59.000          331.764            -77.058    23458.767724
                  14 Sep 2022 11:14:00.000          331.758            -77.059    23458.259203
                  14 Sep 2022 11:14:01.000          331.752            -77.059    23457.750766
                  14 Sep 2022 11:14:02.000          331.746            -77.060    23457.242412
                  14 Sep 2022 11:14:03.000          331.740            -77.060    23456.734140
                  14 Sep 2022 11:14:04.000          331.735            -77.061    23456.225952
                  14 Sep 2022 11:14:05.000          331.729            -77.061    23455.717847
                  14 Sep 2022 11:14:06.000          331.723            -77.062    23455.209824
                  14 Sep 2022 11:14:07.000          331.717            -77.062    23454.701885
                  14 Sep 2022 11:14:08.000          331.712            -77.063    23454.194029
                  14 Sep 2022 11:14:09.000          331.706            -77.063    23453.686256
                  14 Sep 2022 11:14:10.000          331.700            -77.064    23453.178566
                  14 Sep 2022 11:14:11.000          331.694            -77.064    23452.670959
                  14 Sep 2022 11:14:12.000          331.688            -77.065    23452.163436
                  14 Sep 2022 11:14:13.000          331.683            -77.065    23451.655995
                  14 Sep 2022 11:14:14.000          331.677            -77.066    23451.148638
                  14 Sep 2022 11:14:15.000          331.671            -77.066    23450.641364
                  14 Sep 2022 11:14:16.000          331.665            -77.067    23450.134174
                  14 Sep 2022 11:14:17.000          331.659            -77.067    23449.627066
                  14 Sep 2022 11:14:18.000          331.654            -77.068    23449.120042
                  14 Sep 2022 11:14:19.000          331.648            -77.068    23448.613101
                  14 Sep 2022 11:14:20.000          331.642            -77.069    23448.106244
                  14 Sep 2022 11:14:21.000          331.636            -77.069    23447.599470
                  14 Sep 2022 11:14:22.000          331.631            -77.070    23447.092779
                  14 Sep 2022 11:14:23.000          331.625            -77.070    23446.586171
                  14 Sep 2022 11:14:24.000          331.619            -77.071    23446.079647
                  14 Sep 2022 11:14:25.000          331.613            -77.071    23445.573206
                  14 Sep 2022 11:14:26.000          331.607            -77.072    23445.066849
                  14 Sep 2022 11:14:27.000          331.602            -77.072    23444.560575
                  14 Sep 2022 11:14:28.000          331.596            -77.073    23444.054385
                  14 Sep 2022 11:14:29.000          331.590            -77.073    23443.548278
                  14 Sep 2022 11:14:30.000          331.584            -77.074    23443.042255
                  14 Sep 2022 11:14:31.000          331.578            -77.074    23442.536315
                  14 Sep 2022 11:14:32.000          331.572            -77.075    23442.030458
                  14 Sep 2022 11:14:33.000          331.567            -77.075    23441.524686
                  14 Sep 2022 11:14:34.000          331.561            -77.076    23441.018996
                  14 Sep 2022 11:14:35.000          331.555            -77.076    23440.513391
                  14 Sep 2022 11:14:36.000          331.549            -77.077    23440.007869
                  14 Sep 2022 11:14:37.000          331.543            -77.077    23439.502430
                  14 Sep 2022 11:14:38.000          331.538            -77.078    23438.997075
                  14 Sep 2022 11:14:39.000          331.532            -77.078    23438.491804
                  14 Sep 2022 11:14:40.000          331.526            -77.079    23437.986617
                  14 Sep 2022 11:14:41.000          331.520            -77.079    23437.481513
                  14 Sep 2022 11:14:42.000          331.514            -77.080    23436.976493
                  14 Sep 2022 11:14:43.000          331.509            -77.080    23436.471557
                  14 Sep 2022 11:14:44.000          331.503            -77.081    23435.966704
                  14 Sep 2022 11:14:45.000          331.497            -77.081    23435.461935
                  14 Sep 2022 11:14:46.000          331.491            -77.082    23434.957250
                  14 Sep 2022 11:14:47.000          331.485            -77.083    23434.452649
                  14 Sep 2022 11:14:48.000          331.479            -77.083    23433.948131
                  14 Sep 2022 11:14:49.000          331.474            -77.084    23433.443698
                  14 Sep 2022 11:14:50.000          331.468            -77.084    23432.939348
                  14 Sep 2022 11:14:51.000          331.462            -77.085    23432.435082
                  14 Sep 2022 11:14:52.000          331.456            -77.085    23431.930900
                  14 Sep 2022 11:14:53.000          331.450            -77.086    23431.426802
                  14 Sep 2022 11:14:54.000          331.444            -77.086    23430.922788
                  14 Sep 2022 11:14:55.000          331.439            -77.087    23430.418858
                  14 Sep 2022 11:14:56.000          331.433            -77.087    23429.915012
                  14 Sep 2022 11:14:57.000          331.427            -77.088    23429.411249
                  14 Sep 2022 11:14:58.000          331.421            -77.088    23428.907571
                  14 Sep 2022 11:14:59.000          331.415            -77.089    23428.403977
                  14 Sep 2022 11:15:00.000          331.409            -77.089    23427.900467
                  14 Sep 2022 11:15:01.000          331.404            -77.090    23427.397040
                  14 Sep 2022 11:15:02.000          331.398            -77.090    23426.893698
                  14 Sep 2022 11:15:03.000          331.392            -77.091    23426.390440
                  14 Sep 2022 11:15:04.000          331.386            -77.091    23425.887266
                  14 Sep 2022 11:15:05.000          331.380            -77.092    23425.384177
                  14 Sep 2022 11:15:06.000          331.374            -77.092    23424.881171
                  14 Sep 2022 11:15:07.000          331.369            -77.093    23424.378249
                  14 Sep 2022 11:15:08.000          331.363            -77.093    23423.875412
                  14 Sep 2022 11:15:09.000          331.357            -77.094    23423.372659
                  14 Sep 2022 11:15:10.000          331.351            -77.094    23422.869990
                  14 Sep 2022 11:15:11.000          331.345            -77.095    23422.367405
                  14 Sep 2022 11:15:12.000          331.339            -77.095    23421.864905
                  14 Sep 2022 11:15:13.000          331.334            -77.096    23421.362489
                  14 Sep 2022 11:15:14.000          331.328            -77.096    23420.860157
                  14 Sep 2022 11:15:15.000          331.322            -77.097    23420.357909
                  14 Sep 2022 11:15:16.000          331.316            -77.097    23419.855746
                  14 Sep 2022 11:15:17.000          331.310            -77.098    23419.353667
                  14 Sep 2022 11:15:18.000          331.304            -77.098    23418.851673
                  14 Sep 2022 11:15:19.000          331.298            -77.099    23418.349762
                  14 Sep 2022 11:15:20.000          331.293            -77.099    23417.847936
                  14 Sep 2022 11:15:21.000          331.287            -77.100    23417.346195
                  14 Sep 2022 11:15:22.000          331.281            -77.100    23416.844538
                  14 Sep 2022 11:15:23.000          331.275            -77.101    23416.342966
                  14 Sep 2022 11:15:24.000          331.269            -77.101    23415.841478
                  14 Sep 2022 11:15:25.000          331.263            -77.102    23415.340074
                  14 Sep 2022 11:15:26.000          331.257            -77.102    23414.838755
                  14 Sep 2022 11:15:27.000          331.252            -77.103    23414.337520
                  14 Sep 2022 11:15:28.000          331.246            -77.103    23413.836370
                  14 Sep 2022 11:15:29.000          331.240            -77.104    23413.335305
                  14 Sep 2022 11:15:30.000          331.234            -77.105    23412.834324
                  14 Sep 2022 11:15:31.000          331.228            -77.105    23412.333428
                  14 Sep 2022 11:15:32.000          331.222            -77.106    23411.832616
                  14 Sep 2022 11:15:33.000          331.216            -77.106    23411.331889
                  14 Sep 2022 11:15:34.000          331.211            -77.107    23410.831246
                  14 Sep 2022 11:15:35.000          331.205            -77.107    23410.330689
                  14 Sep 2022 11:15:36.000          331.199            -77.108    23409.830216
                  14 Sep 2022 11:15:37.000          331.193            -77.108    23409.329827
                  14 Sep 2022 11:15:38.000          331.187            -77.109    23408.829523
                  14 Sep 2022 11:15:39.000          331.181            -77.109    23408.329305
                  14 Sep 2022 11:15:40.000          331.175            -77.110    23407.829170
                  14 Sep 2022 11:15:41.000          331.169            -77.110    23407.329121
                  14 Sep 2022 11:15:42.000          331.164            -77.111    23406.829156
                  14 Sep 2022 11:15:43.000          331.158            -77.111    23406.329276
                  14 Sep 2022 11:15:44.000          331.152            -77.112    23405.829481
                  14 Sep 2022 11:15:45.000          331.146            -77.112    23405.329771
                  14 Sep 2022 11:15:46.000          331.140            -77.113    23404.830146
                  14 Sep 2022 11:15:47.000          331.134            -77.113    23404.330605
                  14 Sep 2022 11:15:48.000          331.128            -77.114    23403.831150
                  14 Sep 2022 11:15:49.000          331.122            -77.114    23403.331779
                  14 Sep 2022 11:15:50.000          331.116            -77.115    23402.832493
                  14 Sep 2022 11:15:51.000          331.111            -77.115    23402.333293
                  14 Sep 2022 11:15:52.000          331.105            -77.116    23401.834177
                  14 Sep 2022 11:15:53.000          331.099            -77.116    23401.335146
                  14 Sep 2022 11:15:54.000          331.093            -77.117    23400.836200
                  14 Sep 2022 11:15:55.000          331.087            -77.117    23400.337339
                  14 Sep 2022 11:15:56.000          331.081            -77.118    23399.838563
                  14 Sep 2022 11:15:57.000          331.075            -77.118    23399.339873
                  14 Sep 2022 11:15:58.000          331.069            -77.119    23398.841267
                  14 Sep 2022 11:15:59.000          331.063            -77.119    23398.342746
                  14 Sep 2022 11:16:00.000          331.058            -77.120    23397.844311
                  14 Sep 2022 11:16:01.000          331.052            -77.120    23397.345960
                  14 Sep 2022 11:16:02.000          331.046            -77.121    23396.847695
                  14 Sep 2022 11:16:03.000          331.040            -77.121    23396.349515
                  14 Sep 2022 11:16:04.000          331.034            -77.122    23395.851420
                  14 Sep 2022 11:16:05.000          331.028            -77.123    23395.353411
                  14 Sep 2022 11:16:06.000          331.022            -77.123    23394.855486
                  14 Sep 2022 11:16:07.000          331.016            -77.124    23394.357647
                  14 Sep 2022 11:16:08.000          331.010            -77.124    23393.859893
                  14 Sep 2022 11:16:09.000          331.004            -77.125    23393.362224
                  14 Sep 2022 11:16:10.000          330.999            -77.125    23392.864641
                  14 Sep 2022 11:16:11.000          330.993            -77.126    23392.367142
                  14 Sep 2022 11:16:12.000          330.987            -77.126    23391.869730
                  14 Sep 2022 11:16:13.000          330.981            -77.127    23391.372402
                  14 Sep 2022 11:16:14.000          330.975            -77.127    23390.875160
                  14 Sep 2022 11:16:15.000          330.969            -77.128    23390.378003
                  14 Sep 2022 11:16:16.000          330.963            -77.128    23389.880932
                  14 Sep 2022 11:16:17.000          330.957            -77.129    23389.383946
                  14 Sep 2022 11:16:18.000          330.951            -77.129    23388.887046
                  14 Sep 2022 11:16:19.000          330.945            -77.130    23388.390230
                  14 Sep 2022 11:16:20.000          330.939            -77.130    23387.893501
                  14 Sep 2022 11:16:21.000          330.934            -77.131    23387.396857
                  14 Sep 2022 11:16:22.000          330.928            -77.131    23386.900298
                  14 Sep 2022 11:16:23.000          330.922            -77.132    23386.403825
                  14 Sep 2022 11:16:24.000          330.916            -77.132    23385.907437
                  14 Sep 2022 11:16:25.000          330.910            -77.133    23385.411135
                  14 Sep 2022 11:16:26.000          330.904            -77.133    23384.914919
                  14 Sep 2022 11:16:27.000          330.898            -77.134    23384.418788
                  14 Sep 2022 11:16:28.000          330.892            -77.134    23383.922743
                  14 Sep 2022 11:16:29.000          330.886            -77.135    23383.426783
                  14 Sep 2022 11:16:30.000          330.880            -77.135    23382.930909
                  14 Sep 2022 11:16:31.000          330.874            -77.136    23382.435120
                  14 Sep 2022 11:16:32.000          330.868            -77.136    23381.939418
                  14 Sep 2022 11:16:33.000          330.862            -77.137    23381.443801
                  14 Sep 2022 11:16:34.000          330.857            -77.138    23380.948269
                  14 Sep 2022 11:16:35.000          330.851            -77.138    23380.452824
                  14 Sep 2022 11:16:36.000          330.845            -77.139    23379.957464
                  14 Sep 2022 11:16:37.000          330.839            -77.139    23379.462190
                  14 Sep 2022 11:16:38.000          330.833            -77.140    23378.967002
                  14 Sep 2022 11:16:39.000          330.827            -77.140    23378.471899
                  14 Sep 2022 11:16:40.000          330.821            -77.141    23377.976883
                  14 Sep 2022 11:16:41.000          330.815            -77.141    23377.481952
                  14 Sep 2022 11:16:42.000          330.809            -77.142    23376.987107
                  14 Sep 2022 11:16:43.000          330.803            -77.142    23376.492348
                  14 Sep 2022 11:16:44.000          330.797            -77.143    23375.997675
                  14 Sep 2022 11:16:45.000          330.791            -77.143    23375.503087
                  14 Sep 2022 11:16:46.000          330.785            -77.144    23375.008586
                  14 Sep 2022 11:16:47.000          330.779            -77.144    23374.514170
                  14 Sep 2022 11:16:48.000          330.773            -77.145    23374.019841
                  14 Sep 2022 11:16:49.000          330.767            -77.145    23373.525598
                  14 Sep 2022 11:16:50.000          330.761            -77.146    23373.031440
                  14 Sep 2022 11:16:51.000          330.756            -77.146    23372.537368
                  14 Sep 2022 11:16:52.000          330.750            -77.147    23372.043383
                  14 Sep 2022 11:16:53.000          330.744            -77.147    23371.549484
                  14 Sep 2022 11:16:54.000          330.738            -77.148    23371.055670
                  14 Sep 2022 11:16:55.000          330.732            -77.148    23370.561943
                  14 Sep 2022 11:16:56.000          330.726            -77.149    23370.068302
                  14 Sep 2022 11:16:57.000          330.720            -77.149    23369.574747
                  14 Sep 2022 11:16:58.000          330.714            -77.150    23369.081278
                  14 Sep 2022 11:16:59.000          330.708            -77.150    23368.587895
                  14 Sep 2022 11:17:00.000          330.702            -77.151    23368.094598
                  14 Sep 2022 11:17:01.000          330.696            -77.152    23367.601388
                  14 Sep 2022 11:17:02.000          330.690            -77.152    23367.108264
                  14 Sep 2022 11:17:03.000          330.684            -77.153    23366.615226
                  14 Sep 2022 11:17:04.000          330.678            -77.153    23366.122274
                  14 Sep 2022 11:17:05.000          330.672            -77.154    23365.629409
                  14 Sep 2022 11:17:06.000          330.666            -77.154    23365.136630
                  14 Sep 2022 11:17:07.000          330.660            -77.155    23364.643937
                  14 Sep 2022 11:17:08.000          330.654            -77.155    23364.151330
                  14 Sep 2022 11:17:09.000          330.648            -77.156    23363.658810
                  14 Sep 2022 11:17:10.000          330.642            -77.156    23363.166376
                  14 Sep 2022 11:17:11.000          330.636            -77.157    23362.674028
                  14 Sep 2022 11:17:12.000          330.630            -77.157    23362.181767
                  14 Sep 2022 11:17:13.000          330.624            -77.158    23361.689592
                  14 Sep 2022 11:17:14.000          330.618            -77.158    23361.197504
                  14 Sep 2022 11:17:15.000          330.612            -77.159    23360.705502
                  14 Sep 2022 11:17:16.000          330.607            -77.159    23360.213587
                  14 Sep 2022 11:17:17.000          330.601            -77.160    23359.721758
                  14 Sep 2022 11:17:18.000          330.595            -77.160    23359.230015
                  14 Sep 2022 11:17:19.000          330.589            -77.161    23358.738359
                  14 Sep 2022 11:17:20.000          330.583            -77.161    23358.246790
                  14 Sep 2022 11:17:21.000          330.577            -77.162    23357.755307
                  14 Sep 2022 11:17:22.000          330.571            -77.162    23357.263910
                  14 Sep 2022 11:17:23.000          330.565            -77.163    23356.772601
                  14 Sep 2022 11:17:24.000          330.559            -77.163    23356.281378
                  14 Sep 2022 11:17:25.000          330.553            -77.164    23355.790241
                  14 Sep 2022 11:17:26.000          330.547            -77.165    23355.299191
                  14 Sep 2022 11:17:27.000          330.541            -77.165    23354.808228
                  14 Sep 2022 11:17:28.000          330.535            -77.166    23354.317351
                  14 Sep 2022 11:17:29.000          330.529            -77.166    23353.826561
                  14 Sep 2022 11:17:30.000          330.523            -77.167    23353.335858
                  14 Sep 2022 11:17:31.000          330.517            -77.167    23352.845242
                  14 Sep 2022 11:17:32.000          330.511            -77.168    23352.354712
                  14 Sep 2022 11:17:33.000          330.505            -77.168    23351.864269
                  14 Sep 2022 11:17:34.000          330.499            -77.169    23351.373913
                  14 Sep 2022 11:17:35.000          330.493            -77.169    23350.883643
                  14 Sep 2022 11:17:36.000          330.487            -77.170    23350.393460
                  14 Sep 2022 11:17:37.000          330.481            -77.170    23349.903365
                  14 Sep 2022 11:17:38.000          330.475            -77.171    23349.413356
                  14 Sep 2022 11:17:39.000          330.469            -77.171    23348.923433
                  14 Sep 2022 11:17:40.000          330.463            -77.172    23348.433598
                  14 Sep 2022 11:17:41.000          330.457            -77.172    23347.943850
                  14 Sep 2022 11:17:42.000          330.451            -77.173    23347.454189
                  14 Sep 2022 11:17:43.000          330.445            -77.173    23346.964614
                  14 Sep 2022 11:17:44.000          330.439            -77.174    23346.475126
                  14 Sep 2022 11:17:45.000          330.433            -77.174    23345.985726
                  14 Sep 2022 11:17:46.000          330.427            -77.175    23345.496412
                  14 Sep 2022 11:17:47.000          330.421            -77.175    23345.007185
                  14 Sep 2022 11:17:48.000          330.415            -77.176    23344.518046
                  14 Sep 2022 11:17:49.000          330.409            -77.177    23344.028993
                  14 Sep 2022 11:17:50.000          330.403            -77.177    23343.540028
                  14 Sep 2022 11:17:51.000          330.397            -77.178    23343.051150
                  14 Sep 2022 11:17:52.000          330.391            -77.178    23342.562358
                  14 Sep 2022 11:17:53.000          330.385            -77.179    23342.073654
                  14 Sep 2022 11:17:54.000          330.379            -77.179    23341.585037
                  14 Sep 2022 11:17:55.000          330.373            -77.180    23341.096507
                  14 Sep 2022 11:17:56.000          330.367            -77.180    23340.608064
                  14 Sep 2022 11:17:57.000          330.361            -77.181    23340.119708
                  14 Sep 2022 11:17:58.000          330.355            -77.181    23339.631440
                  14 Sep 2022 11:17:59.000          330.349            -77.182    23339.143259
                  14 Sep 2022 11:18:00.000          330.343            -77.182    23338.655165
                  14 Sep 2022 11:18:01.000          330.337            -77.183    23338.167158
                  14 Sep 2022 11:18:02.000          330.331            -77.183    23337.679239
                  14 Sep 2022 11:18:03.000          330.325            -77.184    23337.191406
                  14 Sep 2022 11:18:04.000          330.319            -77.184    23336.703662
                  14 Sep 2022 11:18:05.000          330.313            -77.185    23336.216004
                  14 Sep 2022 11:18:06.000          330.307            -77.185    23335.728434
                  14 Sep 2022 11:18:07.000          330.301            -77.186    23335.240951
                  14 Sep 2022 11:18:08.000          330.295            -77.186    23334.753555
                  14 Sep 2022 11:18:09.000          330.288            -77.187    23334.266247
                  14 Sep 2022 11:18:10.000          330.282            -77.187    23333.779026
                  14 Sep 2022 11:18:11.000          330.276            -77.188    23333.291893
                  14 Sep 2022 11:18:12.000          330.270            -77.189    23332.804847
                  14 Sep 2022 11:18:13.000          330.264            -77.189    23332.317889
                  14 Sep 2022 11:18:14.000          330.258            -77.190    23331.831018
                  14 Sep 2022 11:18:15.000          330.252            -77.190    23331.344234
                  14 Sep 2022 11:18:16.000          330.246            -77.191    23330.857538
                  14 Sep 2022 11:18:17.000          330.240            -77.191    23330.370930
                  14 Sep 2022 11:18:18.000          330.234            -77.192    23329.884409
                  14 Sep 2022 11:18:19.000          330.228            -77.192    23329.397976
                  14 Sep 2022 11:18:20.000          330.222            -77.193    23328.911630
                  14 Sep 2022 11:18:21.000          330.216            -77.193    23328.425372
                  14 Sep 2022 11:18:22.000          330.210            -77.194    23327.939201
                  14 Sep 2022 11:18:23.000          330.204            -77.194    23327.453119
                  14 Sep 2022 11:18:24.000          330.198            -77.195    23326.967123
                  14 Sep 2022 11:18:25.000          330.192            -77.195    23326.481216
                  14 Sep 2022 11:18:26.000          330.186            -77.196    23325.995396
                  14 Sep 2022 11:18:27.000          330.180            -77.196    23325.509664
                  14 Sep 2022 11:18:28.000          330.174            -77.197    23325.024019
                  14 Sep 2022 11:18:29.000          330.168            -77.197    23324.538463
                  14 Sep 2022 11:18:30.000          330.162            -77.198    23324.052994
                  14 Sep 2022 11:18:31.000          330.156            -77.198    23323.567613
                  14 Sep 2022 11:18:32.000          330.150            -77.199    23323.082319
                  14 Sep 2022 11:18:33.000          330.144            -77.200    23322.597114
                  14 Sep 2022 11:18:34.000          330.137            -77.200    23322.111996
                  14 Sep 2022 11:18:35.000          330.131            -77.201    23321.626966
                  14 Sep 2022 11:18:36.000          330.125            -77.201    23321.142024
                  14 Sep 2022 11:18:37.000          330.119            -77.202    23320.657170
                  14 Sep 2022 11:18:38.000          330.113            -77.202    23320.172403
                  14 Sep 2022 11:18:39.000          330.107            -77.203    23319.687725
                  14 Sep 2022 11:18:40.000          330.101            -77.203    23319.203134
                  14 Sep 2022 11:18:41.000          330.095            -77.204    23318.718632
                  14 Sep 2022 11:18:42.000          330.089            -77.204    23318.234218
                  14 Sep 2022 11:18:43.000          330.083            -77.205    23317.749891
                  14 Sep 2022 11:18:44.000          330.077            -77.205    23317.265653
                  14 Sep 2022 11:18:45.000          330.071            -77.206    23316.781502
                  14 Sep 2022 11:18:46.000          330.065            -77.206    23316.297440
                  14 Sep 2022 11:18:47.000          330.059            -77.207    23315.813465
                  14 Sep 2022 11:18:48.000          330.053            -77.207    23315.329579
                  14 Sep 2022 11:18:49.000          330.047            -77.208    23314.845780
                  14 Sep 2022 11:18:50.000          330.040            -77.208    23314.362070
                  14 Sep 2022 11:18:51.000          330.034            -77.209    23313.878448
                  14 Sep 2022 11:18:52.000          330.028            -77.210    23313.394914
                  14 Sep 2022 11:18:53.000          330.022            -77.210    23312.911468
                  14 Sep 2022 11:18:54.000          330.016            -77.211    23312.428111
                  14 Sep 2022 11:18:55.000          330.010            -77.211    23311.944842
                  14 Sep 2022 11:18:56.000          330.004            -77.212    23311.461660
                  14 Sep 2022 11:18:57.000          329.998            -77.212    23310.978567
                  14 Sep 2022 11:18:58.000          329.992            -77.213    23310.495563
                  14 Sep 2022 11:18:59.000          329.986            -77.213    23310.012646
                  14 Sep 2022 11:19:00.000          329.980            -77.214    23309.529818
                  14 Sep 2022 11:19:01.000          329.974            -77.214    23309.047078
                  14 Sep 2022 11:19:02.000          329.968            -77.215    23308.564427
                  14 Sep 2022 11:19:03.000          329.961            -77.215    23308.081863
                  14 Sep 2022 11:19:04.000          329.955            -77.216    23307.599389
                  14 Sep 2022 11:19:05.000          329.949            -77.216    23307.117002
                  14 Sep 2022 11:19:06.000          329.943            -77.217    23306.634704
                  14 Sep 2022 11:19:07.000          329.937            -77.217    23306.152494
                  14 Sep 2022 11:19:08.000          329.931            -77.218    23305.670373
                  14 Sep 2022 11:19:09.000          329.925            -77.218    23305.188340
                  14 Sep 2022 11:19:10.000          329.919            -77.219    23304.706396
                  14 Sep 2022 11:19:11.000          329.913            -77.220    23304.224540
                  14 Sep 2022 11:19:12.000          329.907            -77.220    23303.742772
                  14 Sep 2022 11:19:13.000          329.901            -77.221    23303.261093
                  14 Sep 2022 11:19:14.000          329.894            -77.221    23302.779503
                  14 Sep 2022 11:19:15.000          329.888            -77.222    23302.298001
                  14 Sep 2022 11:19:16.000          329.882            -77.222    23301.816588
                  14 Sep 2022 11:19:17.000          329.876            -77.223    23301.335263
                  14 Sep 2022 11:19:18.000          329.870            -77.223    23300.854027
                  14 Sep 2022 11:19:19.000          329.864            -77.224    23300.372879
                  14 Sep 2022 11:19:20.000          329.858            -77.224    23299.891821
                  14 Sep 2022 11:19:21.000          329.852            -77.225    23299.410850
                  14 Sep 2022 11:19:22.000          329.846            -77.225    23298.929969
                  14 Sep 2022 11:19:23.000          329.840            -77.226    23298.449176
                  14 Sep 2022 11:19:24.000          329.833            -77.226    23297.968471
                  14 Sep 2022 11:19:25.000          329.827            -77.227    23297.487856
                  14 Sep 2022 11:19:26.000          329.821            -77.227    23297.007329
                  14 Sep 2022 11:19:27.000          329.815            -77.228    23296.526891
                  14 Sep 2022 11:19:28.000          329.809            -77.228    23296.046542
                  14 Sep 2022 11:19:29.000          329.803            -77.229    23295.566281
                  14 Sep 2022 11:19:30.000          329.797            -77.230    23295.086110
                  14 Sep 2022 11:19:31.000          329.791            -77.230    23294.606027
