target/classes/SingleSat/PRN3S10.txt

gps-svn69-To-Xian - AER reported in the object's default AER frame
------------------------------------------------------------------
                         Time (UTCG)          Azimuth (deg)    Elevation (deg)     Range (km) 
                  ------------------------    -------------    ---------------    ------------
                  14 Sep 2022 11:09:04.968          333.419            -76.913    23611.809946
                  14 Sep 2022 11:09:14.000          333.370            -76.917    23607.006643
                  14 Sep 2022 11:09:24.000          333.315            -76.922    23601.695898
                  14 Sep 2022 11:09:34.000          333.259            -76.927    23596.392945
                  14 Sep 2022 11:09:44.000          333.204            -76.932    23591.097803
                  14 Sep 2022 11:09:54.000          333.149            -76.936    23585.810491
                  14 Sep 2022 11:10:04.000          333.094            -76.941    23580.531026
                  14 Sep 2022 11:10:14.000          333.038            -76.946    23575.259427
                  14 Sep 2022 11:10:24.000          332.982            -76.951    23569.995713
                  14 Sep 2022 11:10:34.000          332.927            -76.956    23564.739902
                  14 Sep 2022 11:10:44.000          332.871            -76.961    23559.492013
                  14 Sep 2022 11:10:54.000          332.815            -76.966    23554.252063
                  14 Sep 2022 11:11:04.000          332.759            -76.971    23549.020072
                  14 Sep 2022 11:11:14.000          332.703            -76.976    23543.796057
                  14 Sep 2022 11:11:24.000          332.647            -76.981    23538.580038
                  14 Sep 2022 11:11:34.000          332.591            -76.985    23533.372032
                  14 Sep 2022 11:11:44.000          332.534            -76.990    23528.172057
                  14 Sep 2022 11:11:54.000          332.478            -76.995    23522.980132
                  14 Sep 2022 11:12:04.000          332.421            -77.000    23517.796276
                  14 Sep 2022 11:12:14.000          332.364            -77.005    23512.620506
                  14 Sep 2022 11:12:24.000          332.308            -77.010    23507.452840
                  14 Sep 2022 11:12:34.000          332.251            -77.015    23502.293298
                  14 Sep 2022 11:12:44.000          332.194            -77.020    23497.141897
                  14 Sep 2022 11:12:54.000          332.137            -77.025    23491.998656
                  14 Sep 2022 11:13:04.000          332.080            -77.030    23486.863591
                  14 Sep 2022 11:13:14.000          332.022            -77.035    23481.736723
                  14 Sep 2022 11:13:24.000          331.965            -77.040    23476.618069
                  14 Sep 2022 11:13:34.000          331.908            -77.045    23471.507646
                  14 Sep 2022 11:13:44.000          331.850            -77.051    23466.405474
                  14 Sep 2022 11:13:54.000          331.792            -77.056    23461.311570
                  14 Sep 2022 11:14:04.000          331.735            -77.061    23456.225952
                  14 Sep 2022 11:14:14.000          331.677            -77.066    23451.148638
                  14 Sep 2022 11:14:24.000          331.619            -77.071    23446.079647
                  14 Sep 2022 11:14:34.000          331.561            -77.076    23441.018996
                  14 Sep 2022 11:14:44.000          331.503            -77.081    23435.966704
                  14 Sep 2022 11:14:54.000          331.444            -77.086    23430.922788
                  14 Sep 2022 11:15:04.000          331.386            -77.091    23425.887266
                  14 Sep 2022 11:15:14.000          331.328            -77.096    23420.860157
                  14 Sep 2022 11:15:24.000          331.269            -77.101    23415.841477
                  14 Sep 2022 11:15:34.000          331.211            -77.107    23410.831246
                  14 Sep 2022 11:15:44.000          331.152            -77.112    23405.829481
                  14 Sep 2022 11:15:54.000          331.093            -77.117    23400.836200
                  14 Sep 2022 11:16:04.000          331.034            -77.122    23395.851420
                  14 Sep 2022 11:16:14.000          330.975            -77.127    23390.875160
                  14 Sep 2022 11:16:24.000          330.916            -77.132    23385.907437
                  14 Sep 2022 11:16:34.000          330.857            -77.138    23380.948269
                  14 Sep 2022 11:16:44.000          330.797            -77.143    23375.997674
                  14 Sep 2022 11:16:54.000          330.738            -77.148    23371.055670
                  14 Sep 2022 11:17:04.000          330.678            -77.153    23366.122274
                  14 Sep 2022 11:17:14.000          330.618            -77.158    23361.197504
                  14 Sep 2022 11:17:24.000          330.559            -77.163    23356.281377
                  14 Sep 2022 11:17:34.000          330.499            -77.169    23351.373912
                  14 Sep 2022 11:17:44.000          330.439            -77.174    23346.475126
                  14 Sep 2022 11:17:54.000          330.379            -77.179    23341.585037
                  14 Sep 2022 11:18:04.000          330.319            -77.184    23336.703661
                  14 Sep 2022 11:18:14.000          330.258            -77.190    23331.831018
                  14 Sep 2022 11:18:24.000          330.198            -77.195    23326.967123
                  14 Sep 2022 11:18:34.000          330.137            -77.200    23322.111996
                  14 Sep 2022 11:18:44.000          330.077            -77.205    23317.265652
                  14 Sep 2022 11:18:54.000          330.016            -77.211    23312.428111
                  14 Sep 2022 11:19:04.000          329.955            -77.216    23307.599389
                  14 Sep 2022 11:19:14.000          329.894            -77.221    23302.779503
                  14 Sep 2022 11:19:24.000          329.833            -77.226    23297.968471
                  14 Sep 2022 11:19:34.000          329.772            -77.232    23293.166311
                  14 Sep 2022 11:19:44.000          329.711            -77.237    23288.373040
                  14 Sep 2022 11:19:54.000          329.650            -77.242    23283.588675
                  14 Sep 2022 11:20:04.000          329.588            -77.248    23278.813233
                  14 Sep 2022 11:20:14.000          329.527            -77.253    23274.046732
                  14 Sep 2022 11:20:24.000          329.465            -77.258    23269.289190
                  14 Sep 2022 11:20:34.000          329.404            -77.263    23264.540622
                  14 Sep 2022 11:20:44.000          329.342            -77.269    23259.801047
                  14 Sep 2022 11:20:54.000          329.280            -77.274    23255.070482
                  14 Sep 2022 11:21:04.000          329.218            -77.279    23250.348944
                  14 Sep 2022 11:21:14.000          329.156            -77.285    23245.636449
                  14 Sep 2022 11:21:24.000          329.093            -77.290    23240.933016
                  14 Sep 2022 11:21:34.000          329.031            -77.295    23236.238661
                  14 Sep 2022 11:21:44.000          328.968            -77.301    23231.553401
                  14 Sep 2022 11:21:54.000          328.906            -77.306    23226.877254
                  14 Sep 2022 11:22:04.000          328.843            -77.311    23222.210236
                  14 Sep 2022 11:22:14.000          328.780            -77.317    23217.552365
                  14 Sep 2022 11:22:24.000          328.717            -77.322    23212.903657
                  14 Sep 2022 11:22:34.000          328.654            -77.328    23208.264129
                  14 Sep 2022 11:22:44.000          328.591            -77.333    23203.633798
                  14 Sep 2022 11:22:54.000          328.528            -77.338    23199.012682
                  14 Sep 2022 11:23:04.000          328.465            -77.344    23194.400796
                  14 Sep 2022 11:23:14.000          328.401            -77.349    23189.798159
                  14 Sep 2022 11:23:24.000          328.338            -77.354    23185.204786
                  14 Sep 2022 11:23:34.000          328.274            -77.360    23180.620694
                  14 Sep 2022 11:23:44.000          328.210            -77.365    23176.045901
                  14 Sep 2022 11:23:54.000          328.146            -77.371    23171.480422
                  14 Sep 2022 11:24:04.000          328.082            -77.376    23166.924276
                  14 Sep 2022 11:24:14.000          328.018            -77.381    23162.377477
                  14 Sep 2022 11:24:24.000          327.954            -77.387    23157.840044
                  14 Sep 2022 11:24:34.000          327.890            -77.392    23153.311992
                  14 Sep 2022 11:24:44.000          327.825            -77.398    23148.793338
                  14 Sep 2022 11:24:54.000          327.761            -77.403    23144.284099
                  14 Sep 2022 11:25:04.000          327.696            -77.408    23139.784292
                  14 Sep 2022 11:25:14.000          327.632            -77.414    23135.293932
                  14 Sep 2022 11:25:24.000          327.567            -77.419    23130.813036
                  14 Sep 2022 11:25:34.000          327.502            -77.425    23126.341622
                  14 Sep 2022 11:25:44.000          327.437            -77.430    23121.879704
                  14 Sep 2022 11:25:54.000          327.372            -77.436    23117.427300
                  14 Sep 2022 11:26:04.000          327.306            -77.441    23112.984426
                  14 Sep 2022 11:26:14.000          327.241            -77.446    23108.551098
                  14 Sep 2022 11:26:24.000          327.175            -77.452    23104.127333
                  14 Sep 2022 11:26:34.000          327.110            -77.457    23099.713147
                  14 Sep 2022 11:26:44.000          327.044            -77.463    23095.308556
                  14 Sep 2022 11:26:54.000          326.978            -77.468    23090.913576
                  14 Sep 2022 11:27:04.000          326.912            -77.474    23086.528224
                  14 Sep 2022 11:27:14.000          326.846            -77.479    23082.152516
                  14 Sep 2022 11:27:24.000          326.780            -77.485    23077.786467
                  14 Sep 2022 11:27:34.000          326.714            -77.490    23073.430095
                  14 Sep 2022 11:27:44.000          326.647            -77.495    23069.083414
                  14 Sep 2022 11:27:54.000          326.581            -77.501    23064.746442
                  14 Sep 2022 11:28:04.000          326.514            -77.506    23060.419193
                  14 Sep 2022 11:28:14.000          326.448            -77.512    23056.101685
                  14 Sep 2022 11:28:24.000          326.381            -77.517    23051.793933
                  14 Sep 2022 11:28:34.000          326.314            -77.523    23047.495953
                  14 Sep 2022 11:28:44.000          326.247            -77.528    23043.207761
                  14 Sep 2022 11:28:54.000          326.180            -77.534    23038.929372
                  14 Sep 2022 11:29:04.000          326.112            -77.539    23034.660803
                  14 Sep 2022 11:29:14.000          326.045            -77.545    23030.402069
                  14 Sep 2022 11:29:24.000          325.977            -77.550    23026.153186
                  14 Sep 2022 11:29:34.000          325.910            -77.555    23021.914170
                  14 Sep 2022 11:29:44.000          325.842            -77.561    23017.685037
                  14 Sep 2022 11:29:54.000          325.774            -77.566    23013.465802
                  14 Sep 2022 11:30:04.000          325.706            -77.572    23009.256480
                  14 Sep 2022 11:30:14.000          325.638            -77.577    23005.057088
                  14 Sep 2022 11:30:24.000          325.570            -77.583    23000.867641
                  14 Sep 2022 11:30:34.000          325.502            -77.588    22996.688155
                  14 Sep 2022 11:30:44.000          325.434            -77.594    22992.518644
                  14 Sep 2022 11:30:54.000          325.365            -77.599    22988.359125
                  14 Sep 2022 11:31:04.000          325.296            -77.605    22984.209613
                  14 Sep 2022 11:31:14.000          325.228            -77.610    22980.070123
                  14 Sep 2022 11:31:24.000          325.159            -77.616    22975.940671
                  14 Sep 2022 11:31:34.000          325.090            -77.621    22971.821272
                  14 Sep 2022 11:31:44.000          325.021            -77.627    22967.711941
                  14 Sep 2022 11:31:54.000          324.952            -77.632    22963.612694
                  14 Sep 2022 11:32:04.000          324.883            -77.637    22959.523546
                  14 Sep 2022 11:32:14.000          324.813            -77.643    22955.444512
                  14 Sep 2022 11:32:24.000          324.744            -77.648    22951.375606
                  14 Sep 2022 11:32:34.000          324.674            -77.654    22947.316846
                  14 Sep 2022 11:32:44.000          324.604            -77.659    22943.268244
                  14 Sep 2022 11:32:54.000          324.534            -77.665    22939.229817
                  14 Sep 2022 11:33:04.000          324.464            -77.670    22935.201580
                  14 Sep 2022 11:33:14.000          324.394            -77.676    22931.183547
                  14 Sep 2022 11:33:24.000          324.324            -77.681    22927.175733
                  14 Sep 2022 11:33:34.000          324.254            -77.687    22923.178154
                  14 Sep 2022 11:33:44.000          324.184            -77.692    22919.190825
                  14 Sep 2022 11:33:54.000          324.113            -77.698    22915.213759
                  14 Sep 2022 11:34:04.000          324.042            -77.703    22911.246972
                  14 Sep 2022 11:34:14.000          323.972            -77.708    22907.290479
                  14 Sep 2022 11:34:24.000          323.901            -77.714    22903.344294
                  14 Sep 2022 11:34:34.000          323.830            -77.719    22899.408432
                  14 Sep 2022 11:34:44.000          323.759            -77.725    22895.482908
                  14 Sep 2022 11:34:54.000          323.688            -77.730    22891.567737
                  14 Sep 2022 11:35:04.000          323.616            -77.736    22887.662932
                  14 Sep 2022 11:35:14.000          323.545            -77.741    22883.768509
                  14 Sep 2022 11:35:24.000          323.473            -77.747    22879.884482
                  14 Sep 2022 11:35:34.000          323.402            -77.752    22876.010866
                  14 Sep 2022 11:35:44.000          323.330            -77.757    22872.147675
                  14 Sep 2022 11:35:54.000          323.258            -77.763    22868.294923
                  14 Sep 2022 11:36:04.000          323.186            -77.768    22864.452625
                  14 Sep 2022 11:36:14.000          323.114            -77.774    22860.620795
                  14 Sep 2022 11:36:24.000          323.042            -77.779    22856.799447
                  14 Sep 2022 11:36:34.000          322.969            -77.785    22852.988596
                  14 Sep 2022 11:36:44.000          322.897            -77.790    22849.188256
                  14 Sep 2022 11:36:54.000          322.824            -77.795    22845.398441
                  14 Sep 2022 11:37:04.000          322.752            -77.801    22841.619165
                  14 Sep 2022 11:37:14.000          322.679            -77.806    22837.850443
                  14 Sep 2022 11:37:24.000          322.606            -77.812    22834.092288
                  14 Sep 2022 11:37:34.000          322.533            -77.817    22830.344714
                  14 Sep 2022 11:37:44.000          322.460            -77.822    22826.607735
                  14 Sep 2022 11:37:54.000          322.387            -77.828    22822.881366
                  14 Sep 2022 11:38:04.000          322.313            -77.833    22819.165620
                  14 Sep 2022 11:38:14.000          322.240            -77.839    22815.460511
                  14 Sep 2022 11:38:24.000          322.166            -77.844    22811.766053
                  14 Sep 2022 11:38:34.000          322.093            -77.849    22808.082260
                  14 Sep 2022 11:38:44.000          322.019            -77.855    22804.409145
                  14 Sep 2022 11:38:54.000          321.945            -77.860    22800.746722
                  14 Sep 2022 11:39:04.000          321.871            -77.866    22797.095005
                  14 Sep 2022 11:39:14.000          321.797            -77.871    22793.454008
                  14 Sep 2022 11:39:24.000          321.723            -77.876    22789.823743
                  14 Sep 2022 11:39:34.000          321.648            -77.882    22786.204225
                  14 Sep 2022 11:39:44.000          321.574            -77.887    22782.595467
                  14 Sep 2022 11:39:54.000          321.499            -77.892    22778.997482
                  14 Sep 2022 11:40:04.000          321.424            -77.898    22775.410285
                  14 Sep 2022 11:40:14.000          321.350            -77.903    22771.833888
                  14 Sep 2022 11:40:24.000          321.275            -77.908    22768.268305
                  14 Sep 2022 11:40:34.000          321.200            -77.914    22764.713548
                  14 Sep 2022 11:40:44.000          321.125            -77.919    22761.169632
                  14 Sep 2022 11:40:54.000          321.049            -77.924    22757.636569
                  14 Sep 2022 11:41:04.000          320.974            -77.930    22754.114372
                  14 Sep 2022 11:41:14.000          320.898            -77.935    22750.603056
                  14 Sep 2022 11:41:24.000          320.823            -77.940    22747.102632
                  14 Sep 2022 11:41:34.000          320.747            -77.945    22743.613114
                  14 Sep 2022 11:41:44.000          320.671            -77.951    22740.134515
                  14 Sep 2022 11:41:54.000          320.595            -77.956    22736.666848
                  14 Sep 2022 11:42:04.000          320.519            -77.961    22733.210125
                  14 Sep 2022 11:42:14.000          320.443            -77.967    22729.764360
                  14 Sep 2022 11:42:24.000          320.367            -77.972    22726.329566
                  14 Sep 2022 11:42:34.000          320.290            -77.977    22722.905755
                  14 Sep 2022 11:42:44.000          320.214            -77.982    22719.492940
                  14 Sep 2022 11:42:54.000          320.137            -77.988    22716.091133
                  14 Sep 2022 11:43:04.000          320.061            -77.993    22712.700348
                  14 Sep 2022 11:43:14.000          319.984            -77.998    22709.320597
                  14 Sep 2022 11:43:24.000          319.907            -78.003    22705.951892
                  14 Sep 2022 11:43:34.000          319.830            -78.009    22702.594246
                  14 Sep 2022 11:43:44.000          319.753            -78.014    22699.247672
                  14 Sep 2022 11:43:54.000          319.675            -78.019    22695.912182
                  14 Sep 2022 11:44:04.000          319.598            -78.024    22692.587788
                  14 Sep 2022 11:44:14.000          319.520            -78.029    22689.274503
                  14 Sep 2022 11:44:24.000          319.443            -78.035    22685.972339
                  14 Sep 2022 11:44:34.000          319.365            -78.040    22682.681308
                  14 Sep 2022 11:44:44.000          319.287            -78.045    22679.401423
                  14 Sep 2022 11:44:54.000          319.209            -78.050    22676.132695
                  14 Sep 2022 11:45:04.000          319.131            -78.055    22672.875137
                  14 Sep 2022 11:45:14.000          319.053            -78.060    22669.628761
                  14 Sep 2022 11:45:24.000          318.975            -78.066    22666.393579
                  14 Sep 2022 11:45:34.000          318.896            -78.071    22663.169602
                  14 Sep 2022 11:45:44.000          318.818            -78.076    22659.956844
                  14 Sep 2022 11:45:54.000          318.739            -78.081    22656.755315
                  14 Sep 2022 11:46:04.000          318.660            -78.086    22653.565028
                  14 Sep 2022 11:46:14.000          318.582            -78.091    22650.385994
                  14 Sep 2022 11:46:24.000          318.503            -78.096    22647.218226
                  14 Sep 2022 11:46:34.000          318.424            -78.101    22644.061734
                  14 Sep 2022 11:46:44.000          318.344            -78.106    22640.916531
                  14 Sep 2022 11:46:54.000          318.265            -78.111    22637.782628
                  14 Sep 2022 11:47:04.000          318.186            -78.117    22634.660036
                  14 Sep 2022 11:47:14.000          318.106            -78.122    22631.548768
                  14 Sep 2022 11:47:24.000          318.027            -78.127    22628.448834
                  14 Sep 2022 11:47:34.000          317.947            -78.132    22625.360247
                  14 Sep 2022 11:47:44.000          317.867            -78.137    22622.283017
                  14 Sep 2022 11:47:54.000          317.787            -78.142    22619.217156
                  14 Sep 2022 11:48:04.000          317.707            -78.147    22616.162675
                  14 Sep 2022 11:48:14.000          317.627            -78.152    22613.119586
                  14 Sep 2022 11:48:24.000          317.547            -78.157    22610.087899
                  14 Sep 2022 11:48:34.000          317.466            -78.162    22607.067626
                  14 Sep 2022 11:48:44.000          317.386            -78.167    22604.058778
                  14 Sep 2022 11:48:54.000          317.305            -78.172    22601.061365
                  14 Sep 2022 11:49:04.000          317.225            -78.177    22598.075400
                  14 Sep 2022 11:49:14.000          317.144            -78.182    22595.100892
                  14 Sep 2022 11:49:24.000          317.063            -78.186    22592.137853
                  14 Sep 2022 11:49:34.000          316.982            -78.191    22589.186293
                  14 Sep 2022 11:49:44.000          316.901            -78.196    22586.246224
                  14 Sep 2022 11:49:54.000          316.820            -78.201    22583.317657
                  14 Sep 2022 11:50:04.000          316.738            -78.206    22580.400600
                  14 Sep 2022 11:50:14.000          316.657            -78.211    22577.495067
                  14 Sep 2022 11:50:24.000          316.575            -78.216    22574.601066
                  14 Sep 2022 11:50:34.000          316.494            -78.221    22571.718610
                  14 Sep 2022 11:50:44.000          316.412            -78.226    22568.847707
                  14 Sep 2022 11:50:54.000          316.330            -78.230    22565.988370
                  14 Sep 2022 11:51:04.000          316.248            -78.235    22563.140607
                  14 Sep 2022 11:51:14.000          316.166            -78.240    22560.304430
                  14 Sep 2022 11:51:24.000          316.084            -78.245    22557.479848
                  14 Sep 2022 11:51:34.000          316.001            -78.250    22554.666873
                  14 Sep 2022 11:51:44.000          315.919            -78.254    22551.865513
                  14 Sep 2022 11:51:54.000          315.836            -78.259    22549.075781
                  14 Sep 2022 11:52:04.000          315.754            -78.264    22546.297684
                  14 Sep 2022 11:52:14.000          315.671            -78.269    22543.531235
                  14 Sep 2022 11:52:24.000          315.588            -78.273    22540.776441
                  14 Sep 2022 11:52:34.000          315.505            -78.278    22538.033315
                  14 Sep 2022 11:52:44.000          315.422            -78.283    22535.301864
                  14 Sep 2022 11:52:54.000          315.339            -78.288    22532.582100
                  14 Sep 2022 11:53:04.000          315.256            -78.292    22529.874033
                  14 Sep 2022 11:53:14.000          315.173            -78.297    22527.177671
                  14 Sep 2022 11:53:24.000          315.089            -78.302    22524.493024
                  14 Sep 2022 11:53:34.000          315.006            -78.306    22521.820103
                  14 Sep 2022 11:53:44.000          314.922            -78.311    22519.158917
                  14 Sep 2022 11:53:54.000          314.838            -78.316    22516.509475
                  14 Sep 2022 11:54:04.000          314.755            -78.320    22513.871786
                  14 Sep 2022 11:54:14.000          314.671            -78.325    22511.245862
                  14 Sep 2022 11:54:24.000          314.587            -78.329    22508.631710
                  14 Sep 2022 11:54:34.000          314.502            -78.334    22506.029339
                  14 Sep 2022 11:54:44.000          314.418            -78.339    22503.438761
                  14 Sep 2022 11:54:54.000          314.334            -78.343    22500.859982
                  14 Sep 2022 11:55:04.000          314.249            -78.348    22498.293014
                  14 Sep 2022 11:55:14.000          314.165            -78.352    22495.737865
                  14 Sep 2022 11:55:24.000          314.080            -78.357    22493.194543
                  14 Sep 2022 11:55:34.000          313.995            -78.361    22490.663058
                  14 Sep 2022 11:55:44.000          313.911            -78.366    22488.143419
                  14 Sep 2022 11:55:54.000          313.826            -78.370    22485.635636
                  14 Sep 2022 11:56:04.000          313.741            -78.375    22483.139716
                  14 Sep 2022 11:56:14.000          313.656            -78.379    22480.655668
                  14 Sep 2022 11:56:24.000          313.570            -78.384    22478.183502
                  14 Sep 2022 11:56:34.000          313.485            -78.388    22475.723226
                  14 Sep 2022 11:56:44.000          313.400            -78.392    22473.274849
                  14 Sep 2022 11:56:54.000          313.314            -78.397    22470.838378
                  14 Sep 2022 11:57:04.000          313.228            -78.401    22468.413824
                  14 Sep 2022 11:57:14.000          313.143            -78.406    22466.001194
                  14 Sep 2022 11:57:24.000          313.057            -78.410    22463.600497
                  14 Sep 2022 11:57:34.000          312.971            -78.414    22461.211740
                  14 Sep 2022 11:57:44.000          312.885            -78.419    22458.834934
                  14 Sep 2022 11:57:54.000          312.799            -78.423    22456.470085
                  14 Sep 2022 11:58:04.000          312.713            -78.427    22454.117202
                  14 Sep 2022 11:58:14.000          312.626            -78.431    22451.776293
                  14 Sep 2022 11:58:24.000          312.540            -78.436    22449.447366
                  14 Sep 2022 11:58:34.000          312.453            -78.440    22447.130430
                  14 Sep 2022 11:58:44.000          312.367            -78.444    22444.825492
                  14 Sep 2022 11:58:54.000          312.280            -78.448    22442.532560
                  14 Sep 2022 11:59:04.000          312.193            -78.453    22440.251642
                  14 Sep 2022 11:59:14.000          312.107            -78.457    22437.982747
                  14 Sep 2022 11:59:24.000          312.020            -78.461    22435.725880
                  14 Sep 2022 11:59:34.000          311.933            -78.465    22433.481052
                  14 Sep 2022 11:59:44.000          311.846            -78.469    22431.248268
                  14 Sep 2022 11:59:54.000          311.758            -78.473    22429.027538
                  14 Sep 2022 12:00:04.000          311.671            -78.478    22426.818868
                  14 Sep 2022 12:00:14.000          311.584            -78.482    22424.622265
                  14 Sep 2022 12:00:24.000          311.496            -78.486    22422.437738
                  14 Sep 2022 12:00:34.000          311.409            -78.490    22420.265293
                  14 Sep 2022 12:00:44.000          311.321            -78.494    22418.104939
                  14 Sep 2022 12:00:54.000          311.233            -78.498    22415.956682
                  14 Sep 2022 12:01:04.000          311.145            -78.502    22413.820529
                  14 Sep 2022 12:01:14.000          311.057            -78.506    22411.696488
                  14 Sep 2022 12:01:24.000          310.969            -78.510    22409.584566
                  14 Sep 2022 12:01:34.000          310.881            -78.514    22407.484769
                  14 Sep 2022 12:01:44.000          310.793            -78.518    22405.397106
                  14 Sep 2022 12:01:54.000          310.705            -78.522    22403.321582
                  14 Sep 2022 12:02:04.000          310.616            -78.526    22401.258204
                  14 Sep 2022 12:02:14.000          310.528            -78.530    22399.206981
                  14 Sep 2022 12:02:24.000          310.439            -78.534    22397.167917
                  14 Sep 2022 12:02:34.000          310.351            -78.537    22395.141021
                  14 Sep 2022 12:02:44.000          310.262            -78.541    22393.126298
                  14 Sep 2022 12:02:54.000          310.173            -78.545    22391.123756
                  14 Sep 2022 12:03:04.000          310.084            -78.549    22389.133400
                  14 Sep 2022 12:03:14.000          309.995            -78.553    22387.155237
                  14 Sep 2022 12:03:24.000          309.906            -78.557    22385.189274
                  14 Sep 2022 12:03:34.000          309.817            -78.560    22383.235518
                  14 Sep 2022 12:03:44.000          309.728            -78.564    22381.293973
                  14 Sep 2022 12:03:54.000          309.639            -78.568    22379.364648
                  14 Sep 2022 12:04:04.000          309.549            -78.572    22377.447547
                  14 Sep 2022 12:04:14.000          309.460            -78.575    22375.542677
                  14 Sep 2022 12:04:24.000          309.370            -78.579    22373.650044
                  14 Sep 2022 12:04:34.000          309.281            -78.583    22371.769654
                  14 Sep 2022 12:04:44.000          309.191            -78.586    22369.901513
                  14 Sep 2022 12:04:54.000          309.101            -78.590    22368.045628
                  14 Sep 2022 12:05:04.000          309.012            -78.594    22366.202002
                  14 Sep 2022 12:05:14.000          308.922            -78.597    22364.370644
                  14 Sep 2022 12:05:24.000          308.832            -78.601    22362.551558
                  14 Sep 2022 12:05:34.000          308.742            -78.604    22360.744750
                  14 Sep 2022 12:05:44.000          308.651            -78.608    22358.950226
                  14 Sep 2022 12:05:54.000          308.561            -78.611    22357.167990
                  14 Sep 2022 12:06:04.000          308.471            -78.615    22355.398050
                  14 Sep 2022 12:06:14.000          308.381            -78.618    22353.640409
                  14 Sep 2022 12:06:24.000          308.290            -78.622    22351.895075
                  14 Sep 2022 12:06:34.000          308.200            -78.625    22350.162051
                  14 Sep 2022 12:06:44.000          308.109            -78.629    22348.441342
                  14 Sep 2022 12:06:54.000          308.018            -78.632    22346.732956
                  14 Sep 2022 12:07:04.000          307.928            -78.636    22345.036895
                  14 Sep 2022 12:07:14.000          307.837            -78.639    22343.353167
                  14 Sep 2022 12:07:24.000          307.746            -78.642    22341.681774
                  14 Sep 2022 12:07:34.000          307.655            -78.646    22340.022724
                  14 Sep 2022 12:07:44.000          307.564            -78.649    22338.376019
                  14 Sep 2022 12:07:54.000          307.473            -78.652    22336.741666
                  14 Sep 2022 12:08:04.000          307.382            -78.656    22335.119669
                  14 Sep 2022 12:08:14.000          307.290            -78.659    22333.510033
                  14 Sep 2022 12:08:24.000          307.199            -78.662    22331.912763
                  14 Sep 2022 12:08:34.000          307.108            -78.665    22330.327862
                  14 Sep 2022 12:08:44.000          307.016            -78.669    22328.755336
                  14 Sep 2022 12:08:54.000          306.925            -78.672    22327.195189
                  14 Sep 2022 12:09:04.000          306.833            -78.675    22325.647426
                  14 Sep 2022 12:09:14.000          306.742            -78.678    22324.112051
                  14 Sep 2022 12:09:24.000          306.650            -78.681    22322.589067
                  14 Sep 2022 12:09:34.000          306.558            -78.684    22321.078480
                  14 Sep 2022 12:09:44.000          306.466            -78.687    22319.580294
                  14 Sep 2022 12:09:54.000          306.374            -78.691    22318.094513
                  14 Sep 2022 12:10:04.000          306.282            -78.694    22316.621141
                  14 Sep 2022 12:10:14.000          306.190            -78.697    22315.160181
                  14 Sep 2022 12:10:24.000          306.098            -78.700    22313.711639
                  14 Sep 2022 12:10:34.000          306.006            -78.703    22312.275517
                  14 Sep 2022 12:10:44.000          305.914            -78.706    22310.851819
                  14 Sep 2022 12:10:54.000          305.822            -78.709    22309.440550
                  14 Sep 2022 12:11:04.000          305.729            -78.711    22308.041713
                  14 Sep 2022 12:11:14.000          305.637            -78.714    22306.655312
                  14 Sep 2022 12:11:24.000          305.544            -78.717    22305.281349
                  14 Sep 2022 12:11:34.000          305.452            -78.720    22303.919830
                  14 Sep 2022 12:11:44.000          305.359            -78.723    22302.570757
                  14 Sep 2022 12:11:54.000          305.267            -78.726    22301.234133
                  14 Sep 2022 12:12:04.000          305.174            -78.729    22299.909963
                  14 Sep 2022 12:12:14.000          305.081            -78.731    22298.598248
                  14 Sep 2022 12:12:24.000          304.989            -78.734    22297.298994
                  14 Sep 2022 12:12:34.000          304.896            -78.737    22296.012201
                  14 Sep 2022 12:12:44.000          304.803            -78.740    22294.737875
                  14 Sep 2022 12:12:54.000          304.710            -78.742    22293.476017
                  14 Sep 2022 12:13:04.000          304.617            -78.745    22292.226631
                  14 Sep 2022 12:13:14.000          304.524            -78.748    22290.989720
                  14 Sep 2022 12:13:24.000          304.431            -78.750    22289.765286
                  14 Sep 2022 12:13:34.000          304.338            -78.753    22288.553332
                  14 Sep 2022 12:13:44.000          304.244            -78.756    22287.353862
                  14 Sep 2022 12:13:54.000          304.151            -78.758    22286.166877
                  14 Sep 2022 12:14:04.000          304.058            -78.761    22284.992381
                  14 Sep 2022 12:14:14.000          303.964            -78.763    22283.830375
                  14 Sep 2022 12:14:24.000          303.871            -78.766    22282.680863
                  14 Sep 2022 12:14:34.000          303.778            -78.768    22281.543846
                  14 Sep 2022 12:14:44.000          303.684            -78.771    22280.419328
                  14 Sep 2022 12:14:54.000          303.591            -78.773    22279.307309
                  14 Sep 2022 12:15:04.000          303.497            -78.776    22278.207794
                  14 Sep 2022 12:15:14.000          303.403            -78.778    22277.120783
                  14 Sep 2022 12:15:24.000          303.310            -78.780    22276.046279
                  14 Sep 2022 12:15:34.000          303.216            -78.783    22274.984285
                  14 Sep 2022 12:15:44.000          303.122            -78.785    22273.934801
                  14 Sep 2022 12:15:54.000          303.028            -78.787    22272.897830
                  14 Sep 2022 12:16:04.000          302.934            -78.790    22271.873374
                  14 Sep 2022 12:16:14.000          302.841            -78.792    22270.861434
                  14 Sep 2022 12:16:24.000          302.747            -78.794    22269.862013
                  14 Sep 2022 12:16:34.000          302.653            -78.797    22268.875111
                  14 Sep 2022 12:16:44.000          302.559            -78.799    22267.900731
                  14 Sep 2022 12:16:54.000          302.465            -78.801    22266.938875
                  14 Sep 2022 12:17:04.000          302.370            -78.803    22265.989543
                  14 Sep 2022 12:17:14.000          302.276            -78.805    22265.052736
                  14 Sep 2022 12:17:24.000          302.182            -78.807    22264.128458
                  14 Sep 2022 12:17:34.000          302.088            -78.809    22263.216708
                  14 Sep 2022 12:17:44.000          301.994            -78.812    22262.317488
                  14 Sep 2022 12:17:54.000          301.899            -78.814    22261.430799
                  14 Sep 2022 12:18:04.000          301.805            -78.816    22260.556642
                  14 Sep 2022 12:18:14.000          301.711            -78.818    22259.695019
                  14 Sep 2022 12:18:24.000          301.616            -78.820    22258.845930
                  14 Sep 2022 12:18:34.000          301.522            -78.822    22258.009376
                  14 Sep 2022 12:18:44.000          301.428            -78.824    22257.185358
                  14 Sep 2022 12:18:54.000          301.333            -78.825    22256.373877
                  14 Sep 2022 12:19:04.000          301.239            -78.827    22255.574934
                  14 Sep 2022 12:19:14.000          301.144            -78.829    22254.788529
                  14 Sep 2022 12:19:24.000          301.050            -78.831    22254.014663
                  14 Sep 2022 12:19:34.000          300.955            -78.833    22253.253336
                  14 Sep 2022 12:19:44.000          300.860            -78.835    22252.504550
                  14 Sep 2022 12:19:54.000          300.766            -78.837    22251.768303
                  14 Sep 2022 12:20:04.000          300.671            -78.838    22251.044598
                  14 Sep 2022 12:20:14.000          300.576            -78.840    22250.333433
                  14 Sep 2022 12:20:24.000          300.482            -78.842    22249.634810
                  14 Sep 2022 12:20:34.000          300.387            -78.843    22248.948728
                  14 Sep 2022 12:20:44.000          300.292            -78.845    22248.275188
                  14 Sep 2022 12:20:54.000          300.197            -78.847    22247.614190
                  14 Sep 2022 12:21:04.000          300.103            -78.848    22246.965733
                  14 Sep 2022 12:21:14.000          300.008            -78.850    22246.329817
                  14 Sep 2022 12:21:24.000          299.913            -78.852    22245.706443
                  14 Sep 2022 12:21:34.000          299.818            -78.853    22245.095610
                  14 Sep 2022 12:21:44.000          299.723            -78.855    22244.497319
                  14 Sep 2022 12:21:54.000          299.628            -78.856    22243.911567
                  14 Sep 2022 12:22:04.000          299.533            -78.858    22243.338356
                  14 Sep 2022 12:22:14.000          299.438            -78.859    22242.777685
                  14 Sep 2022 12:22:24.000          299.344            -78.861    22242.229553
                  14 Sep 2022 12:22:34.000          299.249            -78.862    22241.693959
                  14 Sep 2022 12:22:44.000          299.154            -78.863    22241.170904
                  14 Sep 2022 12:22:54.000          299.059            -78.865    22240.660386
                  14 Sep 2022 12:23:04.000          298.964            -78.866    22240.162404
                  14 Sep 2022 12:23:14.000          298.869            -78.867    22239.676958
                  14 Sep 2022 12:23:24.000          298.774            -78.869    22239.204047
                  14 Sep 2022 12:23:34.000          298.678            -78.870    22238.743670
                  14 Sep 2022 12:23:44.000          298.583            -78.871    22238.295825
                  14 Sep 2022 12:23:54.000          298.488            -78.873    22237.860513
                  14 Sep 2022 12:24:04.000          298.393            -78.874    22237.437730
                  14 Sep 2022 12:24:14.000          298.298            -78.875    22237.027478
                  14 Sep 2022 12:24:24.000          298.203            -78.876    22236.629753
                  14 Sep 2022 12:24:34.000          298.108            -78.877    22236.244555
                  14 Sep 2022 12:24:44.000          298.013            -78.878    22235.871883
                  14 Sep 2022 12:24:54.000          297.918            -78.879    22235.511735
                  14 Sep 2022 12:25:04.000          297.823            -78.881    22235.164109
                  14 Sep 2022 12:25:14.000          297.728            -78.882    22234.829003
                  14 Sep 2022 12:25:24.000          297.632            -78.883    22234.506417
                  14 Sep 2022 12:25:34.000          297.537            -78.884    22234.196348
                  14 Sep 2022 12:25:44.000          297.442            -78.885    22233.898795
                  14 Sep 2022 12:25:54.000          297.347            -78.885    22233.613756
                  14 Sep 2022 12:26:04.000          297.252            -78.886    22233.341229
                  14 Sep 2022 12:26:14.000          297.157            -78.887    22233.081211
                  14 Sep 2022 12:26:24.000          297.062            -78.888    22232.833701
                  14 Sep 2022 12:26:34.000          296.966            -78.889    22232.598698
                  14 Sep 2022 12:26:44.000          296.871            -78.890    22232.376198
                  14 Sep 2022 12:26:54.000          296.776            -78.891    22232.166199
                  14 Sep 2022 12:27:04.000          296.681            -78.891    22231.968700
                  14 Sep 2022 12:27:14.000          296.586            -78.892    22231.783697
                  14 Sep 2022 12:27:24.000          296.491            -78.893    22231.611189
                  14 Sep 2022 12:27:34.000          296.396            -78.894    22231.451172
                  14 Sep 2022 12:27:44.000          296.301            -78.894    22231.303645
                  14 Sep 2022 12:27:54.000          296.206            -78.895    22231.168605
                  14 Sep 2022 12:28:04.000          296.111            -78.896    22231.046049
                  14 Sep 2022 12:28:14.000          296.015            -78.896    22230.935975
                  14 Sep 2022 12:28:24.000          295.920            -78.897    22230.838379
                  14 Sep 2022 12:28:34.000          295.825            -78.897    22230.753259
                  14 Sep 2022 12:28:44.000          295.730            -78.898    22230.680611
                  14 Sep 2022 12:28:54.000          295.635            -78.899    22230.620434
                  14 Sep 2022 12:29:04.000          295.540            -78.899    22230.572724
                  14 Sep 2022 12:29:14.000          295.445            -78.900    22230.537477
                  14 Sep 2022 12:29:24.000          295.350            -78.900    22230.514691
                  14 Sep 2022 12:29:34.000          295.255            -78.900    22230.504362
                  14 Sep 2022 12:29:44.000          295.160            -78.901    22230.506487
                  14 Sep 2022 12:29:54.000          295.065            -78.901    22230.521063
                  14 Sep 2022 12:30:04.000          294.971            -78.902    22230.548086
                  14 Sep 2022 12:30:14.000          294.876            -78.902    22230.587553
                  14 Sep 2022 12:30:24.000          294.781            -78.902    22230.639461
                  14 Sep 2022 12:30:34.000          294.686            -78.902    22230.703805
                  14 Sep 2022 12:30:44.000          294.591            -78.903    22230.780582
                  14 Sep 2022 12:30:54.000          294.496            -78.903    22230.869788
                  14 Sep 2022 12:31:04.000          294.401            -78.903    22230.971420
                  14 Sep 2022 12:31:14.000          294.307            -78.903    22231.085473
                  14 Sep 2022 12:31:24.000          294.212            -78.904    22231.211945
                  14 Sep 2022 12:31:34.000          294.117            -78.904    22231.350830
                  14 Sep 2022 12:31:44.000          294.022            -78.904    22231.502125
                  14 Sep 2022 12:31:54.000          293.928            -78.904    22231.665825
                  14 Sep 2022 12:32:04.000          293.833            -78.904    22231.841927
                  14 Sep 2022 12:32:14.000          293.738            -78.904    22232.030426
                  14 Sep 2022 12:32:24.000          293.644            -78.904    22232.231318
                  14 Sep 2022 12:32:34.000          293.549            -78.904    22232.444598
                  14 Sep 2022 12:32:44.000          293.455            -78.904    22232.670263
                  14 Sep 2022 12:32:54.000          293.360            -78.904    22232.908307
                  14 Sep 2022 12:33:04.000          293.266            -78.904    22233.158727
                  14 Sep 2022 12:33:14.000          293.171            -78.904    22233.421517
                  14 Sep 2022 12:33:24.000          293.077            -78.904    22233.696673
                  14 Sep 2022 12:33:34.000          292.982            -78.904    22233.984190
                  14 Sep 2022 12:33:44.000          292.888            -78.903    22234.284063
                  14 Sep 2022 12:33:54.000          292.794            -78.903    22234.596288
                  14 Sep 2022 12:34:04.000          292.699            -78.903    22234.920859
                  14 Sep 2022 12:34:14.000          292.605            -78.903    22235.257772
                  14 Sep 2022 12:34:24.000          292.511            -78.902    22235.607022
                  14 Sep 2022 12:34:34.000          292.417            -78.902    22235.968603
                  14 Sep 2022 12:34:44.000          292.323            -78.902    22236.342510
                  14 Sep 2022 12:34:54.000          292.228            -78.902    22236.728739
                  14 Sep 2022 12:35:04.000          292.134            -78.901    22237.127283
                  14 Sep 2022 12:35:14.000          292.040            -78.901    22237.538138
                  14 Sep 2022 12:35:24.000          291.946            -78.900    22237.961298
                  14 Sep 2022 12:35:34.000          291.852            -78.900    22238.396758
                  14 Sep 2022 12:35:44.000          291.759            -78.900    22238.844511
                  14 Sep 2022 12:35:54.000          291.665            -78.899    22239.304553
                  14 Sep 2022 12:36:04.000          291.571            -78.899    22239.776878
                  14 Sep 2022 12:36:14.000          291.477            -78.898    22240.261480
                  14 Sep 2022 12:36:24.000          291.383            -78.898    22240.758353
                  14 Sep 2022 12:36:34.000          291.290            -78.897    22241.267492
                  14 Sep 2022 12:36:44.000          291.196            -78.896    22241.788890
                  14 Sep 2022 12:36:54.000          291.102            -78.896    22242.322542
                  14 Sep 2022 12:37:04.000          291.009            -78.895    22242.868442
                  14 Sep 2022 12:37:14.000          290.915            -78.894    22243.426583
                  14 Sep 2022 12:37:24.000          290.822            -78.894    22243.996959
                  14 Sep 2022 12:37:34.000          290.729            -78.893    22244.579565
                  14 Sep 2022 12:37:44.000          290.635            -78.892    22245.174393
                  14 Sep 2022 12:37:54.000          290.542            -78.892    22245.781438
                  14 Sep 2022 12:38:04.000          290.449            -78.891    22246.400694
                  14 Sep 2022 12:38:14.000          290.355            -78.890    22247.032153
                  14 Sep 2022 12:38:24.000          290.262            -78.889    22247.675809
                  14 Sep 2022 12:38:34.000          290.169            -78.888    22248.331655
                  14 Sep 2022 12:38:44.000          290.076            -78.887    22248.999686
                  14 Sep 2022 12:38:54.000          289.983            -78.887    22249.679894
                  14 Sep 2022 12:39:04.000          289.890            -78.886    22250.372273
                  14 Sep 2022 12:39:14.000          289.797            -78.885    22251.076816
                  14 Sep 2022 12:39:24.000          289.705            -78.884    22251.793515
                  14 Sep 2022 12:39:34.000          289.612            -78.883    22252.522364
                  14 Sep 2022 12:39:44.000          289.519            -78.882    22253.263356
                  14 Sep 2022 12:39:54.000          289.427            -78.881    22254.016485
                  14 Sep 2022 12:40:04.000          289.334            -78.880    22254.781741
                  14 Sep 2022 12:40:14.000          289.242            -78.879    22255.559120
                  14 Sep 2022 12:40:24.000          289.149            -78.878    22256.348613
                  14 Sep 2022 12:40:34.000          289.057            -78.876    22257.150213
                  14 Sep 2022 12:40:44.000          288.964            -78.875    22257.963913
                  14 Sep 2022 12:40:54.000          288.872            -78.874    22258.789704
                  14 Sep 2022 12:41:04.000          288.780            -78.873    22259.627581
                  14 Sep 2022 12:41:14.000          288.688            -78.872    22260.477535
                  14 Sep 2022 12:41:24.000          288.596            -78.871    22261.339559
                  14 Sep 2022 12:41:34.000          288.504            -78.869    22262.213645
                  14 Sep 2022 12:41:44.000          288.412            -78.868    22263.099785
                  14 Sep 2022 12:41:54.000          288.320            -78.867    22263.997972
                  14 Sep 2022 12:42:04.000          288.228            -78.865    22264.908197
                  14 Sep 2022 12:42:14.000          288.136            -78.864    22265.830453
                  14 Sep 2022 12:42:24.000          288.045            -78.863    22266.764732
                  14 Sep 2022 12:42:34.000          287.953            -78.861    22267.711026
                  14 Sep 2022 12:42:44.000          287.862            -78.860    22268.669327
                  14 Sep 2022 12:42:54.000          287.770            -78.858    22269.639626
                  14 Sep 2022 12:43:04.000          287.679            -78.857    22270.621916
                  14 Sep 2022 12:43:14.000          287.588            -78.856    22271.616188
                  14 Sep 2022 12:43:24.000          287.496            -78.854    22272.622433
                  14 Sep 2022 12:43:34.000          287.405            -78.853    22273.640645
                  14 Sep 2022 12:43:44.000          287.314            -78.851    22274.670813
                  14 Sep 2022 12:43:54.000          287.223            -78.849    22275.712931
                  14 Sep 2022 12:44:04.000          287.132            -78.848    22276.766988
                  14 Sep 2022 12:44:14.000          287.041            -78.846    22277.832977
                  14 Sep 2022 12:44:24.000          286.951            -78.845    22278.910888
                  14 Sep 2022 12:44:34.000          286.860            -78.843    22280.000714
                  14 Sep 2022 12:44:44.000          286.769            -78.841    22281.102445
                  14 Sep 2022 12:44:54.000          286.679            -78.840    22282.216072
                  14 Sep 2022 12:45:04.000          286.588            -78.838    22283.341587
                  14 Sep 2022 12:45:14.000          286.498            -78.836    22284.478981
                  14 Sep 2022 12:45:24.000          286.408            -78.834    22285.628244
                  14 Sep 2022 12:45:34.000          286.317            -78.833    22286.789368
                  14 Sep 2022 12:45:44.000          286.227            -78.831    22287.962344
                  14 Sep 2022 12:45:54.000          286.137            -78.829    22289.147162
                  14 Sep 2022 12:46:04.000          286.047            -78.827    22290.343812
                  14 Sep 2022 12:46:14.000          285.957            -78.825    22291.552287
                  14 Sep 2022 12:46:24.000          285.868            -78.823    22292.772576
                  14 Sep 2022 12:46:34.000          285.778            -78.822    22294.004670
                  14 Sep 2022 12:46:44.000          285.688            -78.820    22295.248559
                  14 Sep 2022 12:46:54.000          285.599            -78.818    22296.504234
                  14 Sep 2022 12:47:04.000          285.509            -78.816    22297.771686
                  14 Sep 2022 12:47:14.000          285.420            -78.814    22299.050904
                  14 Sep 2022 12:47:24.000          285.331            -78.812    22300.341880
                  14 Sep 2022 12:47:34.000          285.241            -78.810    22301.644603
                  14 Sep 2022 12:47:44.000          285.152            -78.808    22302.959063
                  14 Sep 2022 12:47:54.000          285.063            -78.806    22304.285251
                  14 Sep 2022 12:48:04.000          284.974            -78.803    22305.623157
                  14 Sep 2022 12:48:14.000          284.886            -78.801    22306.972770
                  14 Sep 2022 12:48:24.000          284.797            -78.799    22308.334081
                  14 Sep 2022 12:48:34.000          284.708            -78.797    22309.707079
                  14 Sep 2022 12:48:44.000          284.620            -78.795    22311.091755
                  14 Sep 2022 12:48:54.000          284.531            -78.793    22312.488099
                  14 Sep 2022 12:49:04.000          284.443            -78.791    22313.896099
                  14 Sep 2022 12:49:14.000          284.355            -78.788    22315.315745
                  14 Sep 2022 12:49:24.000          284.266            -78.786    22316.747029
                  14 Sep 2022 12:49:34.000          284.178            -78.784    22318.189938
                  14 Sep 2022 12:49:44.000          284.090            -78.781    22319.644462
                  14 Sep 2022 12:49:54.000          284.002            -78.779    22321.110591
                  14 Sep 2022 12:50:04.000          283.915            -78.777    22322.588314
                  14 Sep 2022 12:50:14.000          283.827            -78.774    22324.077621
                  14 Sep 2022 12:50:24.000          283.739            -78.772    22325.578500
                  14 Sep 2022 12:50:34.000          283.652            -78.770    22327.090942
                  14 Sep 2022 12:50:44.000          283.565            -78.767    22328.614935
                  14 Sep 2022 12:50:54.000          283.477            -78.765    22330.150469
                  14 Sep 2022 12:51:04.000          283.390            -78.762    22331.697531
                  14 Sep 2022 12:51:14.000          283.303            -78.760    22333.256113
                  14 Sep 2022 12:51:24.000          283.216            -78.757    22334.826202
                  14 Sep 2022 12:51:34.000          283.129            -78.755    22336.407787
                  14 Sep 2022 12:51:44.000          283.042            -78.752    22338.000857
                  14 Sep 2022 12:51:54.000          282.956            -78.750    22339.605402
                  14 Sep 2022 12:52:04.000          282.869            -78.747    22341.221409
                  14 Sep 2022 12:52:14.000          282.783            -78.745    22342.848867
                  14 Sep 2022 12:52:24.000          282.696            -78.742    22344.487766
                  14 Sep 2022 12:52:34.000          282.610            -78.740    22346.138093
                  14 Sep 2022 12:52:44.000          282.524            -78.737    22347.799838
                  14 Sep 2022 12:52:54.000          282.438            -78.734    22349.472988
                  14 Sep 2022 12:53:04.000          282.352            -78.732    22351.157532
                  14 Sep 2022 12:53:14.000          282.266            -78.729    22352.853459
                  14 Sep 2022 12:53:24.000          282.180            -78.726    22354.560756
                  14 Sep 2022 12:53:34.000          282.095            -78.723    22356.279412
