src/main/resources/SingleSat/newPRN3S.txt

gps-svn69-To-Xian - AER reported in the object's default AER frame
------------------------------------------------------------------
                         Time (UTCG)          Azimuth (deg)    Elevation (deg)     Range (km) 
                  ------------------------    -------------    ---------------    ------------
                  14 Sep 2022 11:42:07.679          320.491            -77.963    22731.941040
                  14 Sep 2022 11:42:08.000          320.489            -77.963    22731.830505
                  14 Sep 2022 11:42:09.000          320.481            -77.964    22731.485873
                  14 Sep 2022 11:42:10.000          320.474            -77.964    22731.141352
                  14 Sep 2022 11:42:11.000          320.466            -77.965    22730.796940
                  14 Sep 2022 11:42:12.000          320.458            -77.966    22730.452637
                  14 Sep 2022 11:42:13.000          320.451            -77.966    22730.108444
                  14 Sep 2022 11:42:14.000          320.443            -77.967    22729.764361
                  14 Sep 2022 11:42:15.000          320.435            -77.967    22729.420388
                  14 Sep 2022 11:42:16.000          320.428            -77.968    22729.076524
                  14 Sep 2022 11:42:17.000          320.420            -77.968    22728.732771
                  14 Sep 2022 11:42:18.000          320.413            -77.969    22728.389126
                  14 Sep 2022 11:42:19.000          320.405            -77.969    22728.045592
                  14 Sep 2022 11:42:20.000          320.397            -77.970    22727.702167
                  14 Sep 2022 11:42:21.000          320.390            -77.970    22727.358853
                  14 Sep 2022 11:42:22.000          320.382            -77.971    22727.015648
                  14 Sep 2022 11:42:23.000          320.374            -77.971    22726.672552
                  14 Sep 2022 11:42:24.000          320.367            -77.972    22726.329567
                  14 Sep 2022 11:42:25.000          320.359            -77.972    22725.986691
                  14 Sep 2022 11:42:26.000          320.352            -77.973    22725.643926
                  14 Sep 2022 11:42:27.000          320.344            -77.973    22725.301270
                  14 Sep 2022 11:42:28.000          320.336            -77.974    22724.958724
                  14 Sep 2022 11:42:29.000          320.329            -77.974    22724.616288
                  14 Sep 2022 11:42:30.000          320.321            -77.975    22724.273961
                  14 Sep 2022 11:42:31.000          320.313            -77.976    22723.931745
                  14 Sep 2022 11:42:32.000          320.306            -77.976    22723.589639
                  14 Sep 2022 11:42:33.000          320.298            -77.977    22723.247642
                  14 Sep 2022 11:42:34.000          320.290            -77.977    22722.905756
                  14 Sep 2022 11:42:35.000          320.283            -77.978    22722.563979
                  14 Sep 2022 11:42:36.000          320.275            -77.978    22722.222313
                  14 Sep 2022 11:42:37.000          320.268            -77.979    22721.880756
                  14 Sep 2022 11:42:38.000          320.260            -77.979    22721.539309
                  14 Sep 2022 11:42:39.000          320.252            -77.980    22721.197973
                  14 Sep 2022 11:42:40.000          320.245            -77.980    22720.856746
                  14 Sep 2022 11:42:41.000          320.237            -77.981    22720.515630
                  14 Sep 2022 11:42:42.000          320.229            -77.981    22720.174623
                  14 Sep 2022 11:42:43.000          320.222            -77.982    22719.833727
                  14 Sep 2022 11:42:44.000          320.214            -77.982    22719.492940
                  14 Sep 2022 11:42:45.000          320.206            -77.983    22719.152264
                  14 Sep 2022 11:42:46.000          320.199            -77.983    22718.811698
                  14 Sep 2022 11:42:47.000          320.191            -77.984    22718.471242
                  14 Sep 2022 11:42:48.000          320.183            -77.984    22718.130896
                  14 Sep 2022 11:42:49.000          320.176            -77.985    22717.790660
                  14 Sep 2022 11:42:50.000          320.168            -77.986    22717.450535
                  14 Sep 2022 11:42:51.000          320.160            -77.986    22717.110519
                  14 Sep 2022 11:42:52.000          320.153            -77.987    22716.770614
                  14 Sep 2022 11:42:53.000          320.145            -77.987    22716.430819
                  14 Sep 2022 11:42:54.000          320.137            -77.988    22716.091134
                  14 Sep 2022 11:42:55.000          320.130            -77.988    22715.751559
                  14 Sep 2022 11:42:56.000          320.122            -77.989    22715.412095
                  14 Sep 2022 11:42:57.000          320.114            -77.989    22715.072740
                  14 Sep 2022 11:42:58.000          320.107            -77.990    22714.733497
                  14 Sep 2022 11:42:59.000          320.099            -77.990    22714.394363
                  14 Sep 2022 11:43:00.000          320.091            -77.991    22714.055339
                  14 Sep 2022 11:43:01.000          320.084            -77.991    22713.716426
                  14 Sep 2022 11:43:02.000          320.076            -77.992    22713.377624
                  14 Sep 2022 11:43:03.000          320.068            -77.992    22713.038931
                  14 Sep 2022 11:43:04.000          320.061            -77.993    22712.700349
                  14 Sep 2022 11:43:05.000          320.053            -77.993    22712.361877
                  14 Sep 2022 11:43:06.000          320.045            -77.994    22712.023515
                  14 Sep 2022 11:43:07.000          320.038            -77.994    22711.685264
                  14 Sep 2022 11:43:08.000          320.030            -77.995    22711.347124
                  14 Sep 2022 11:43:09.000          320.022            -77.995    22711.009093
                  14 Sep 2022 11:43:10.000          320.015            -77.996    22710.671173
                  14 Sep 2022 11:43:11.000          320.007            -77.997    22710.333363
                  14 Sep 2022 11:43:12.000          319.999            -77.997    22709.995664
                  14 Sep 2022 11:43:13.000          319.991            -77.998    22709.658076
                  14 Sep 2022 11:43:14.000          319.984            -77.998    22709.320597
                  14 Sep 2022 11:43:15.000          319.976            -77.999    22708.983230
                  14 Sep 2022 11:43:16.000          319.968            -77.999    22708.645972
                  14 Sep 2022 11:43:17.000          319.961            -78.000    22708.308826
                  14 Sep 2022 11:43:18.000          319.953            -78.000    22707.971789
                  14 Sep 2022 11:43:19.000          319.945            -78.001    22707.634863
                  14 Sep 2022 11:43:20.000          319.938            -78.001    22707.298048
                  14 Sep 2022 11:43:21.000          319.930            -78.002    22706.961343
                  14 Sep 2022 11:43:22.000          319.922            -78.002    22706.624749
                  14 Sep 2022 11:43:23.000          319.915            -78.003    22706.288266
                  14 Sep 2022 11:43:24.000          319.907            -78.003    22705.951893
                  14 Sep 2022 11:43:25.000          319.899            -78.004    22705.615630
                  14 Sep 2022 11:43:26.000          319.891            -78.004    22705.279479
                  14 Sep 2022 11:43:27.000          319.884            -78.005    22704.943437
                  14 Sep 2022 11:43:28.000          319.876            -78.005    22704.607507
                  14 Sep 2022 11:43:29.000          319.868            -78.006    22704.271687
                  14 Sep 2022 11:43:30.000          319.861            -78.006    22703.935977
                  14 Sep 2022 11:43:31.000          319.853            -78.007    22703.600379
                  14 Sep 2022 11:43:32.000          319.845            -78.008    22703.264891
                  14 Sep 2022 11:43:33.000          319.837            -78.008    22702.929514
                  14 Sep 2022 11:43:34.000          319.830            -78.009    22702.594247
                  14 Sep 2022 11:43:35.000          319.822            -78.009    22702.259091
                  14 Sep 2022 11:43:36.000          319.814            -78.010    22701.924046
                  14 Sep 2022 11:43:37.000          319.807            -78.010    22701.589112
                  14 Sep 2022 11:43:38.000          319.799            -78.011    22701.254288
                  14 Sep 2022 11:43:39.000          319.791            -78.011    22700.919575
                  14 Sep 2022 11:43:40.000          319.783            -78.012    22700.584973
                  14 Sep 2022 11:43:41.000          319.776            -78.012    22700.250482
                  14 Sep 2022 11:43:42.000          319.768            -78.013    22699.916101
                  14 Sep 2022 11:43:43.000          319.760            -78.013    22699.581832
                  14 Sep 2022 11:43:44.000          319.753            -78.014    22699.247673
                  14 Sep 2022 11:43:45.000          319.745            -78.014    22698.913625
                  14 Sep 2022 11:43:46.000          319.737            -78.015    22698.579688
                  14 Sep 2022 11:43:47.000          319.729            -78.015    22698.245861
                  14 Sep 2022 11:43:48.000          319.722            -78.016    22697.912146
                  14 Sep 2022 11:43:49.000          319.714            -78.016    22697.578542
                  14 Sep 2022 11:43:50.000          319.706            -78.017    22697.245048
                  14 Sep 2022 11:43:51.000          319.698            -78.017    22696.911665
                  14 Sep 2022 11:43:52.000          319.691            -78.018    22696.578394
                  14 Sep 2022 11:43:53.000          319.683            -78.018    22696.245232
                  14 Sep 2022 11:43:54.000          319.675            -78.019    22695.912183
                  14 Sep 2022 11:43:55.000          319.668            -78.019    22695.579244
                  14 Sep 2022 11:43:56.000          319.660            -78.020    22695.246416
                  14 Sep 2022 11:43:57.000          319.652            -78.021    22694.913699
                  14 Sep 2022 11:43:58.000          319.644            -78.021    22694.581093
                  14 Sep 2022 11:43:59.000          319.637            -78.022    22694.248598
                  14 Sep 2022 11:44:00.000          319.629            -78.022    22693.916214
                  14 Sep 2022 11:44:01.000          319.621            -78.023    22693.583941
                  14 Sep 2022 11:44:02.000          319.613            -78.023    22693.251779
                  14 Sep 2022 11:44:03.000          319.606            -78.024    22692.919728
                  14 Sep 2022 11:44:04.000          319.598            -78.024    22692.587789
                  14 Sep 2022 11:44:05.000          319.590            -78.025    22692.255960
                  14 Sep 2022 11:44:06.000          319.582            -78.025    22691.924243
                  14 Sep 2022 11:44:07.000          319.575            -78.026    22691.592636
                  14 Sep 2022 11:44:08.000          319.567            -78.026    22691.261141
                  14 Sep 2022 11:44:09.000          319.559            -78.027    22690.929757
                  14 Sep 2022 11:44:10.000          319.551            -78.027    22690.598484
                  14 Sep 2022 11:44:11.000          319.544            -78.028    22690.267322
                  14 Sep 2022 11:44:12.000          319.536            -78.028    22689.936271
                  14 Sep 2022 11:44:13.000          319.528            -78.029    22689.605332
                  14 Sep 2022 11:44:14.000          319.520            -78.029    22689.274504
                  14 Sep 2022 11:44:15.000          319.513            -78.030    22688.943787
                  14 Sep 2022 11:44:16.000          319.505            -78.030    22688.613181
                  14 Sep 2022 11:44:17.000          319.497            -78.031    22688.282686
                  14 Sep 2022 11:44:18.000          319.489            -78.031    22687.952303
                  14 Sep 2022 11:44:19.000          319.482            -78.032    22687.622031
                  14 Sep 2022 11:44:20.000          319.474            -78.032    22687.291870
                  14 Sep 2022 11:44:21.000          319.466            -78.033    22686.961820
                  14 Sep 2022 11:44:22.000          319.458            -78.034    22686.631882
                  14 Sep 2022 11:44:23.000          319.451            -78.034    22686.302055
                  14 Sep 2022 11:44:24.000          319.443            -78.035    22685.972340
                  14 Sep 2022 11:44:25.000          319.435            -78.035    22685.642735
                  14 Sep 2022 11:44:26.000          319.427            -78.036    22685.313242
                  14 Sep 2022 11:44:27.000          319.419            -78.036    22684.983861
                  14 Sep 2022 11:44:28.000          319.412            -78.037    22684.654591
                  14 Sep 2022 11:44:29.000          319.404            -78.037    22684.325432
                  14 Sep 2022 11:44:30.000          319.396            -78.038    22683.996384
                  14 Sep 2022 11:44:31.000          319.388            -78.038    22683.667448
                  14 Sep 2022 11:44:32.000          319.381            -78.039    22683.338624
                  14 Sep 2022 11:44:33.000          319.373            -78.039    22683.009910
                  14 Sep 2022 11:44:34.000          319.365            -78.040    22682.681309
                  14 Sep 2022 11:44:35.000          319.357            -78.040    22682.352818
                  14 Sep 2022 11:44:36.000          319.349            -78.041    22682.024440
                  14 Sep 2022 11:44:37.000          319.342            -78.041    22681.696172
                  14 Sep 2022 11:44:38.000          319.334            -78.042    22681.368017
                  14 Sep 2022 11:44:39.000          319.326            -78.042    22681.039972
                  14 Sep 2022 11:44:40.000          319.318            -78.043    22680.712039
                  14 Sep 2022 11:44:41.000          319.311            -78.043    22680.384218
                  14 Sep 2022 11:44:42.000          319.303            -78.044    22680.056508
                  14 Sep 2022 11:44:43.000          319.295            -78.044    22679.728910
                  14 Sep 2022 11:44:44.000          319.287            -78.045    22679.401423
                  14 Sep 2022 11:44:45.000          319.279            -78.045    22679.074048
                  14 Sep 2022 11:44:46.000          319.272            -78.046    22678.746785
                  14 Sep 2022 11:44:47.000          319.264            -78.046    22678.419633
                  14 Sep 2022 11:44:48.000          319.256            -78.047    22678.092593
                  14 Sep 2022 11:44:49.000          319.248            -78.047    22677.765664
                  14 Sep 2022 11:44:50.000          319.240            -78.048    22677.438847
                  14 Sep 2022 11:44:51.000          319.233            -78.049    22677.112142
                  14 Sep 2022 11:44:52.000          319.225            -78.049    22676.785548
                  14 Sep 2022 11:44:53.000          319.217            -78.050    22676.459066
                  14 Sep 2022 11:44:54.000          319.209            -78.050    22676.132696
                  14 Sep 2022 11:44:55.000          319.201            -78.051    22675.806437
                  14 Sep 2022 11:44:56.000          319.194            -78.051    22675.480290
                  14 Sep 2022 11:44:57.000          319.186            -78.052    22675.154255
                  14 Sep 2022 11:44:58.000          319.178            -78.052    22674.828332
                  14 Sep 2022 11:44:59.000          319.170            -78.053    22674.502520
                  14 Sep 2022 11:45:00.000          319.162            -78.053    22674.176820
                  14 Sep 2022 11:45:01.000          319.155            -78.054    22673.851232
                  14 Sep 2022 11:45:02.000          319.147            -78.054    22673.525755
                  14 Sep 2022 11:45:03.000          319.139            -78.055    22673.200391
                  14 Sep 2022 11:45:04.000          319.131            -78.055    22672.875138
                  14 Sep 2022 11:45:05.000          319.123            -78.056    22672.549997
                  14 Sep 2022 11:45:06.000          319.116            -78.056    22672.224968
                  14 Sep 2022 11:45:07.000          319.108            -78.057    22671.900050
                  14 Sep 2022 11:45:08.000          319.100            -78.057    22671.575245
                  14 Sep 2022 11:45:09.000          319.092            -78.058    22671.250551
                  14 Sep 2022 11:45:10.000          319.084            -78.058    22670.925970
                  14 Sep 2022 11:45:11.000          319.076            -78.059    22670.601500
                  14 Sep 2022 11:45:12.000          319.069            -78.059    22670.277142
                  14 Sep 2022 11:45:13.000          319.061            -78.060    22669.952896
                  14 Sep 2022 11:45:14.000          319.053            -78.060    22669.628762
                  14 Sep 2022 11:45:15.000          319.045            -78.061    22669.304740
                  14 Sep 2022 11:45:16.000          319.037            -78.061    22668.980829
                  14 Sep 2022 11:45:17.000          319.030            -78.062    22668.657031
                  14 Sep 2022 11:45:18.000          319.022            -78.062    22668.333345
                  14 Sep 2022 11:45:19.000          319.014            -78.063    22668.009771
                  14 Sep 2022 11:45:20.000          319.006            -78.063    22667.686308
                  14 Sep 2022 11:45:21.000          318.998            -78.064    22667.362958
                  14 Sep 2022 11:45:22.000          318.990            -78.065    22667.039720
                  14 Sep 2022 11:45:23.000          318.983            -78.065    22666.716594
                  14 Sep 2022 11:45:24.000          318.975            -78.066    22666.393580
                  14 Sep 2022 11:45:25.000          318.967            -78.066    22666.070678
                  14 Sep 2022 11:45:26.000          318.959            -78.067    22665.747888
                  14 Sep 2022 11:45:27.000          318.951            -78.067    22665.425210
                  14 Sep 2022 11:45:28.000          318.943            -78.068    22665.102644
                  14 Sep 2022 11:45:29.000          318.936            -78.068    22664.780190
                  14 Sep 2022 11:45:30.000          318.928            -78.069    22664.457848
                  14 Sep 2022 11:45:31.000          318.920            -78.069    22664.135619
                  14 Sep 2022 11:45:32.000          318.912            -78.070    22663.813502
                  14 Sep 2022 11:45:33.000          318.904            -78.070    22663.491496
                  14 Sep 2022 11:45:34.000          318.896            -78.071    22663.169603
                  14 Sep 2022 11:45:35.000          318.888            -78.071    22662.847823
                  14 Sep 2022 11:45:36.000          318.881            -78.072    22662.526154
                  14 Sep 2022 11:45:37.000          318.873            -78.072    22662.204597
                  14 Sep 2022 11:45:38.000          318.865            -78.073    22661.883153
                  14 Sep 2022 11:45:39.000          318.857            -78.073    22661.561821
                  14 Sep 2022 11:45:40.000          318.849            -78.074    22661.240602
                  14 Sep 2022 11:45:41.000          318.841            -78.074    22660.919494
                  14 Sep 2022 11:45:42.000          318.834            -78.075    22660.598499
                  14 Sep 2022 11:45:43.000          318.826            -78.075    22660.277616
                  14 Sep 2022 11:45:44.000          318.818            -78.076    22659.956845
                  14 Sep 2022 11:45:45.000          318.810            -78.076    22659.636186
                  14 Sep 2022 11:45:46.000          318.802            -78.077    22659.315640
                  14 Sep 2022 11:45:47.000          318.794            -78.077    22658.995207
                  14 Sep 2022 11:45:48.000          318.786            -78.078    22658.674885
                  14 Sep 2022 11:45:49.000          318.779            -78.078    22658.354676
                  14 Sep 2022 11:45:50.000          318.771            -78.079    22658.034579
                  14 Sep 2022 11:45:51.000          318.763            -78.079    22657.714595
                  14 Sep 2022 11:45:52.000          318.755            -78.080    22657.394723
                  14 Sep 2022 11:45:53.000          318.747            -78.080    22657.074964
                  14 Sep 2022 11:45:54.000          318.739            -78.081    22656.755316
                  14 Sep 2022 11:45:55.000          318.731            -78.081    22656.435782
                  14 Sep 2022 11:45:56.000          318.723            -78.082    22656.116359
                  14 Sep 2022 11:45:57.000          318.716            -78.082    22655.797049
                  14 Sep 2022 11:45:58.000          318.708            -78.083    22655.477852
                  14 Sep 2022 11:45:59.000          318.700            -78.083    22655.158767
                  14 Sep 2022 11:46:00.000          318.692            -78.084    22654.839794
                  14 Sep 2022 11:46:01.000          318.684            -78.084    22654.520934
                  14 Sep 2022 11:46:02.000          318.676            -78.085    22654.202187
                  14 Sep 2022 11:46:03.000          318.668            -78.086    22653.883552
                  14 Sep 2022 11:46:04.000          318.660            -78.086    22653.565029
                  14 Sep 2022 11:46:05.000          318.653            -78.087    22653.246619
                  14 Sep 2022 11:46:06.000          318.645            -78.087    22652.928322
                  14 Sep 2022 11:46:07.000          318.637            -78.088    22652.610137
                  14 Sep 2022 11:46:08.000          318.629            -78.088    22652.292065
                  14 Sep 2022 11:46:09.000          318.621            -78.089    22651.974105
                  14 Sep 2022 11:46:10.000          318.613            -78.089    22651.656258
                  14 Sep 2022 11:46:11.000          318.605            -78.090    22651.338523
                  14 Sep 2022 11:46:12.000          318.597            -78.090    22651.020901
                  14 Sep 2022 11:46:13.000          318.589            -78.091    22650.703392
                  14 Sep 2022 11:46:14.000          318.582            -78.091    22650.385995
                  14 Sep 2022 11:46:15.000          318.574            -78.092    22650.068711
                  14 Sep 2022 11:46:16.000          318.566            -78.092    22649.751540
                  14 Sep 2022 11:46:17.000          318.558            -78.093    22649.434481
                  14 Sep 2022 11:46:18.000          318.550            -78.093    22649.117535
                  14 Sep 2022 11:46:19.000          318.542            -78.094    22648.800702
                  14 Sep 2022 11:46:20.000          318.534            -78.094    22648.483982
                  14 Sep 2022 11:46:21.000          318.526            -78.095    22648.167374
                  14 Sep 2022 11:46:22.000          318.518            -78.095    22647.850879
                  14 Sep 2022 11:46:23.000          318.511            -78.096    22647.534496
                  14 Sep 2022 11:46:24.000          318.503            -78.096    22647.218227
                  14 Sep 2022 11:46:25.000          318.495            -78.097    22646.902070
                  14 Sep 2022 11:46:26.000          318.487            -78.097    22646.586026
                  14 Sep 2022 11:46:27.000          318.479            -78.098    22646.270095
                  14 Sep 2022 11:46:28.000          318.471            -78.098    22645.954276
                  14 Sep 2022 11:46:29.000          318.463            -78.099    22645.638571
                  14 Sep 2022 11:46:30.000          318.455            -78.099    22645.322978
                  14 Sep 2022 11:46:31.000          318.447            -78.100    22645.007498
                  14 Sep 2022 11:46:32.000          318.439            -78.100    22644.692130
                  14 Sep 2022 11:46:33.000          318.432            -78.101    22644.376876
                  14 Sep 2022 11:46:34.000          318.424            -78.101    22644.061735
                  14 Sep 2022 11:46:35.000          318.416            -78.102    22643.746706
                  14 Sep 2022 11:46:36.000          318.408            -78.102    22643.431791
                  14 Sep 2022 11:46:37.000          318.400            -78.103    22643.116988
                  14 Sep 2022 11:46:38.000          318.392            -78.103    22642.802298
                  14 Sep 2022 11:46:39.000          318.384            -78.104    22642.487721
                  14 Sep 2022 11:46:40.000          318.376            -78.104    22642.173258
                  14 Sep 2022 11:46:41.000          318.368            -78.105    22641.858907
                  14 Sep 2022 11:46:42.000          318.360            -78.105    22641.544669
                  14 Sep 2022 11:46:43.000          318.352            -78.106    22641.230544
                  14 Sep 2022 11:46:44.000          318.344            -78.106    22640.916532
                  14 Sep 2022 11:46:45.000          318.337            -78.107    22640.602633
                  14 Sep 2022 11:46:46.000          318.329            -78.107    22640.288847
                  14 Sep 2022 11:46:47.000          318.321            -78.108    22639.975174
                  14 Sep 2022 11:46:48.000          318.313            -78.108    22639.661614
                  14 Sep 2022 11:46:49.000          318.305            -78.109    22639.348167
                  14 Sep 2022 11:46:50.000          318.297            -78.109    22639.034833
                  14 Sep 2022 11:46:51.000          318.289            -78.110    22638.721612
                  14 Sep 2022 11:46:52.000          318.281            -78.110    22638.408504
                  14 Sep 2022 11:46:53.000          318.273            -78.111    22638.095510
                  14 Sep 2022 11:46:54.000          318.265            -78.111    22637.782628
                  14 Sep 2022 11:46:55.000          318.257            -78.112    22637.469860
                  14 Sep 2022 11:46:56.000          318.249            -78.112    22637.157205
                  14 Sep 2022 11:46:57.000          318.241            -78.113    22636.844663
                  14 Sep 2022 11:46:58.000          318.233            -78.113    22636.532234
                  14 Sep 2022 11:46:59.000          318.225            -78.114    22636.219918
                  14 Sep 2022 11:47:00.000          318.218            -78.114    22635.907715
                  14 Sep 2022 11:47:01.000          318.210            -78.115    22635.595626
                  14 Sep 2022 11:47:02.000          318.202            -78.116    22635.283650
                  14 Sep 2022 11:47:03.000          318.194            -78.116    22634.971787
                  14 Sep 2022 11:47:04.000          318.186            -78.117    22634.660037
                  14 Sep 2022 11:47:05.000          318.178            -78.117    22634.348401
                  14 Sep 2022 11:47:06.000          318.170            -78.118    22634.036877
                  14 Sep 2022 11:47:07.000          318.162            -78.118    22633.725467
                  14 Sep 2022 11:47:08.000          318.154            -78.119    22633.414170
                  14 Sep 2022 11:47:09.000          318.146            -78.119    22633.102987
                  14 Sep 2022 11:47:10.000          318.138            -78.120    22632.791917
                  14 Sep 2022 11:47:11.000          318.130            -78.120    22632.480960
                  14 Sep 2022 11:47:12.000          318.122            -78.121    22632.170116
                  14 Sep 2022 11:47:13.000          318.114            -78.121    22631.859386
                  14 Sep 2022 11:47:14.000          318.106            -78.122    22631.548769
                  14 Sep 2022 11:47:15.000          318.098            -78.122    22631.238265
                  14 Sep 2022 11:47:16.000          318.090            -78.123    22630.927875
                  14 Sep 2022 11:47:17.000          318.082            -78.123    22630.617598
                  14 Sep 2022 11:47:18.000          318.074            -78.124    22630.307435
                  14 Sep 2022 11:47:19.000          318.066            -78.124    22629.997384
                  14 Sep 2022 11:47:20.000          318.059            -78.125    22629.687448
                  14 Sep 2022 11:47:21.000          318.051            -78.125    22629.377624
                  14 Sep 2022 11:47:22.000          318.043            -78.126    22629.067915
                  14 Sep 2022 11:47:23.000          318.035            -78.126    22628.758318
                  14 Sep 2022 11:47:24.000          318.027            -78.127    22628.448835
                  14 Sep 2022 11:47:25.000          318.019            -78.127    22628.139466
                  14 Sep 2022 11:47:26.000          318.011            -78.128    22627.830210
                  14 Sep 2022 11:47:27.000          318.003            -78.128    22627.521067
                  14 Sep 2022 11:47:28.000          317.995            -78.129    22627.212038
                  14 Sep 2022 11:47:29.000          317.987            -78.129    22626.903123
                  14 Sep 2022 11:47:30.000          317.979            -78.130    22626.594321
                  14 Sep 2022 11:47:31.000          317.971            -78.130    22626.285632
                  14 Sep 2022 11:47:32.000          317.963            -78.131    22625.977057
                  14 Sep 2022 11:47:33.000          317.955            -78.131    22625.668596
                  14 Sep 2022 11:47:34.000          317.947            -78.132    22625.360248
                  14 Sep 2022 11:47:35.000          317.939            -78.132    22625.052014
                  14 Sep 2022 11:47:36.000          317.931            -78.133    22624.743893
                  14 Sep 2022 11:47:37.000          317.923            -78.133    22624.435886
                  14 Sep 2022 11:47:38.000          317.915            -78.134    22624.127993
                  14 Sep 2022 11:47:39.000          317.907            -78.134    22623.820213
                  14 Sep 2022 11:47:40.000          317.899            -78.135    22623.512547
                  14 Sep 2022 11:47:41.000          317.891            -78.135    22623.204994
                  14 Sep 2022 11:47:42.000          317.883            -78.136    22622.897555
                  14 Sep 2022 11:47:43.000          317.875            -78.136    22622.590230
                  14 Sep 2022 11:47:44.000          317.867            -78.137    22622.283018
                  14 Sep 2022 11:47:45.000          317.859            -78.137    22621.975920
                  14 Sep 2022 11:47:46.000          317.851            -78.138    22621.668936
                  14 Sep 2022 11:47:47.000          317.843            -78.138    22621.362066
                  14 Sep 2022 11:47:48.000          317.835            -78.139    22621.055309
                  14 Sep 2022 11:47:49.000          317.827            -78.139    22620.748666
                  14 Sep 2022 11:47:50.000          317.819            -78.140    22620.442136
                  14 Sep 2022 11:47:51.000          317.811            -78.140    22620.135721
                  14 Sep 2022 11:47:52.000          317.803            -78.141    22619.829419
                  14 Sep 2022 11:47:53.000          317.795            -78.141    22619.523231
                  14 Sep 2022 11:47:54.000          317.787            -78.142    22619.217157
                  14 Sep 2022 11:47:55.000          317.779            -78.142    22618.911197
                  14 Sep 2022 11:47:56.000          317.771            -78.143    22618.605350
                  14 Sep 2022 11:47:57.000          317.763            -78.143    22618.299617
                  14 Sep 2022 11:47:58.000          317.755            -78.144    22617.993998
                  14 Sep 2022 11:47:59.000          317.747            -78.144    22617.688493
                  14 Sep 2022 11:48:00.000          317.739            -78.145    22617.383102
                  14 Sep 2022 11:48:01.000          317.731            -78.145    22617.077825
                  14 Sep 2022 11:48:02.000          317.723            -78.146    22616.772661
                  14 Sep 2022 11:48:03.000          317.715            -78.146    22616.467612
                  14 Sep 2022 11:48:04.000          317.707            -78.147    22616.162676
                  14 Sep 2022 11:48:05.000          317.699            -78.147    22615.857855
                  14 Sep 2022 11:48:06.000          317.691            -78.148    22615.553147
                  14 Sep 2022 11:48:07.000          317.683            -78.148    22615.248553
                  14 Sep 2022 11:48:08.000          317.675            -78.149    22614.944073
                  14 Sep 2022 11:48:09.000          317.667            -78.149    22614.639707
                  14 Sep 2022 11:48:10.000          317.659            -78.150    22614.335455
                  14 Sep 2022 11:48:11.000          317.651            -78.150    22614.031317
                  14 Sep 2022 11:48:12.000          317.643            -78.151    22613.727293
                  14 Sep 2022 11:48:13.000          317.635            -78.151    22613.423383
                  14 Sep 2022 11:48:14.000          317.627            -78.152    22613.119587
                  14 Sep 2022 11:48:15.000          317.619            -78.152    22612.815905
                  14 Sep 2022 11:48:16.000          317.611            -78.153    22612.512337
                  14 Sep 2022 11:48:17.000          317.603            -78.153    22612.208883
                  14 Sep 2022 11:48:18.000          317.595            -78.154    22611.905543
                  14 Sep 2022 11:48:19.000          317.587            -78.154    22611.602317
                  14 Sep 2022 11:48:20.000          317.579            -78.155    22611.299206
                  14 Sep 2022 11:48:21.000          317.571            -78.155    22610.996208
                  14 Sep 2022 11:48:22.000          317.563            -78.156    22610.693325
                  14 Sep 2022 11:48:23.000          317.555            -78.156    22610.390555
                  14 Sep 2022 11:48:24.000          317.547            -78.157    22610.087900
                  14 Sep 2022 11:48:25.000          317.539            -78.157    22609.785359
                  14 Sep 2022 11:48:26.000          317.531            -78.158    22609.482932
                  14 Sep 2022 11:48:27.000          317.523            -78.158    22609.180619
                  14 Sep 2022 11:48:28.000          317.515            -78.159    22608.878421
                  14 Sep 2022 11:48:29.000          317.507            -78.159    22608.576336
                  14 Sep 2022 11:48:30.000          317.499            -78.160    22608.274366
                  14 Sep 2022 11:48:31.000          317.490            -78.160    22607.972510
                  14 Sep 2022 11:48:32.000          317.482            -78.161    22607.670768
                  14 Sep 2022 11:48:33.000          317.474            -78.161    22607.369140
                  14 Sep 2022 11:48:34.000          317.466            -78.162    22607.067627
                  14 Sep 2022 11:48:35.000          317.458            -78.162    22606.766228
                  14 Sep 2022 11:48:36.000          317.450            -78.163    22606.464943
                  14 Sep 2022 11:48:37.000          317.442            -78.163    22606.163772
                  14 Sep 2022 11:48:38.000          317.434            -78.164    22605.862716
                  14 Sep 2022 11:48:39.000          317.426            -78.164    22605.561774
                  14 Sep 2022 11:48:40.000          317.418            -78.165    22605.260946
                  14 Sep 2022 11:48:41.000          317.410            -78.165    22604.960233
                  14 Sep 2022 11:48:42.000          317.402            -78.166    22604.659634
                  14 Sep 2022 11:48:43.000          317.394            -78.166    22604.359149
                  14 Sep 2022 11:48:44.000          317.386            -78.167    22604.058779
                  14 Sep 2022 11:48:45.000          317.378            -78.167    22603.758523
                  14 Sep 2022 11:48:46.000          317.370            -78.168    22603.458381
                  14 Sep 2022 11:48:47.000          317.362            -78.168    22603.158354
                  14 Sep 2022 11:48:48.000          317.354            -78.169    22602.858441
                  14 Sep 2022 11:48:49.000          317.346            -78.169    22602.558642
                  14 Sep 2022 11:48:50.000          317.338            -78.170    22602.258958
                  14 Sep 2022 11:48:51.000          317.329            -78.170    22601.959388
                  14 Sep 2022 11:48:52.000          317.321            -78.171    22601.659933
                  14 Sep 2022 11:48:53.000          317.313            -78.171    22601.360592
                  14 Sep 2022 11:48:54.000          317.305            -78.172    22601.061366
                  14 Sep 2022 11:48:55.000          317.297            -78.172    22600.762254
                  14 Sep 2022 11:48:56.000          317.289            -78.173    22600.463257
                  14 Sep 2022 11:48:57.000          317.281            -78.173    22600.164374
                  14 Sep 2022 11:48:58.000          317.273            -78.174    22599.865606
                  14 Sep 2022 11:48:59.000          317.265            -78.174    22599.566952
                  14 Sep 2022 11:49:00.000          317.257            -78.175    22599.268412
                  14 Sep 2022 11:49:01.000          317.249            -78.175    22598.969988
                  14 Sep 2022 11:49:02.000          317.241            -78.176    22598.671677
                  14 Sep 2022 11:49:03.000          317.233            -78.176    22598.373482
                  14 Sep 2022 11:49:04.000          317.225            -78.177    22598.075401
                  14 Sep 2022 11:49:05.000          317.217            -78.177    22597.777434
                  14 Sep 2022 11:49:06.000          317.208            -78.178    22597.479582
                  14 Sep 2022 11:49:07.000          317.200            -78.178    22597.181845
                  14 Sep 2022 11:49:08.000          317.192            -78.179    22596.884222
                  14 Sep 2022 11:49:09.000          317.184            -78.179    22596.586714
                  14 Sep 2022 11:49:10.000          317.176            -78.180    22596.289320
                  14 Sep 2022 11:49:11.000          317.168            -78.180    22595.992041
                  14 Sep 2022 11:49:12.000          317.160            -78.181    22595.694877
                  14 Sep 2022 11:49:13.000          317.152            -78.181    22595.397828
                  14 Sep 2022 11:49:14.000          317.144            -78.182    22595.100893
                  14 Sep 2022 11:49:15.000          317.136            -78.182    22594.804073
                  14 Sep 2022 11:49:16.000          317.128            -78.182    22594.507367
                  14 Sep 2022 11:49:17.000          317.120            -78.183    22594.210776
                  14 Sep 2022 11:49:18.000          317.111            -78.183    22593.914300
                  14 Sep 2022 11:49:19.000          317.103            -78.184    22593.617939
                  14 Sep 2022 11:49:20.000          317.095            -78.184    22593.321692
                  14 Sep 2022 11:49:21.000          317.087            -78.185    22593.025561
                  14 Sep 2022 11:49:22.000          317.079            -78.185    22592.729544
                  14 Sep 2022 11:49:23.000          317.071            -78.186    22592.433641
                  14 Sep 2022 11:49:24.000          317.063            -78.186    22592.137854
                  14 Sep 2022 11:49:25.000          317.055            -78.187    22591.842181
                  14 Sep 2022 11:49:26.000          317.047            -78.187    22591.546623
                  14 Sep 2022 11:49:27.000          317.039            -78.188    22591.251180
                  14 Sep 2022 11:49:28.000          317.030            -78.188    22590.955852
                  14 Sep 2022 11:49:29.000          317.022            -78.189    22590.660638
                  14 Sep 2022 11:49:30.000          317.014            -78.189    22590.365540
                  14 Sep 2022 11:49:31.000          317.006            -78.190    22590.070556
                  14 Sep 2022 11:49:32.000          316.998            -78.190    22589.775687
                  14 Sep 2022 11:49:33.000          316.990            -78.191    22589.480933
                  14 Sep 2022 11:49:34.000          316.982            -78.191    22589.186294
                  14 Sep 2022 11:49:35.000          316.974            -78.192    22588.891770
                  14 Sep 2022 11:49:36.000          316.966            -78.192    22588.597361
                  14 Sep 2022 11:49:37.000          316.958            -78.193    22588.303067
                  14 Sep 2022 11:49:38.000          316.949            -78.193    22588.008887
                  14 Sep 2022 11:49:39.000          316.941            -78.194    22587.714823
                  14 Sep 2022 11:49:40.000          316.933            -78.194    22587.420873
                  14 Sep 2022 11:49:41.000          316.925            -78.195    22587.127039
                  14 Sep 2022 11:49:42.000          316.917            -78.195    22586.833319
                  14 Sep 2022 11:49:43.000          316.909            -78.196    22586.539715
                  14 Sep 2022 11:49:44.000          316.901            -78.196    22586.246225
                  14 Sep 2022 11:49:45.000          316.893            -78.197    22585.952851
                  14 Sep 2022 11:49:46.000          316.885            -78.197    22585.659591
                  14 Sep 2022 11:49:47.000          316.876            -78.198    22585.366447
                  14 Sep 2022 11:49:48.000          316.868            -78.198    22585.073417
                  14 Sep 2022 11:49:49.000          316.860            -78.199    22584.780503
                  14 Sep 2022 11:49:50.000          316.852            -78.199    22584.487704
                  14 Sep 2022 11:49:51.000          316.844            -78.200    22584.195020
                  14 Sep 2022 11:49:52.000          316.836            -78.200    22583.902451
                  14 Sep 2022 11:49:53.000          316.828            -78.201    22583.609997
                  14 Sep 2022 11:49:54.000          316.820            -78.201    22583.317658
                  14 Sep 2022 11:49:55.000          316.811            -78.202    22583.025434
                  14 Sep 2022 11:49:56.000          316.803            -78.202    22582.733325
                  14 Sep 2022 11:49:57.000          316.795            -78.203    22582.441332
                  14 Sep 2022 11:49:58.000          316.787            -78.203    22582.149453
                  14 Sep 2022 11:49:59.000          316.779            -78.204    22581.857690
                  14 Sep 2022 11:50:00.000          316.771            -78.204    22581.566042
                  14 Sep 2022 11:50:01.000          316.763            -78.205    22581.274509
                  14 Sep 2022 11:50:02.000          316.754            -78.205    22580.983091
                  14 Sep 2022 11:50:03.000          316.746            -78.206    22580.691789
                  14 Sep 2022 11:50:04.000          316.738            -78.206    22580.400602
                  14 Sep 2022 11:50:05.000          316.730            -78.207    22580.109530
                  14 Sep 2022 11:50:06.000          316.722            -78.207    22579.818573
                  14 Sep 2022 11:50:07.000          316.714            -78.208    22579.527731
                  14 Sep 2022 11:50:08.000          316.706            -78.208    22579.237005
                  14 Sep 2022 11:50:09.000          316.697            -78.209    22578.946394
                  14 Sep 2022 11:50:10.000          316.689            -78.209    22578.655898
                  14 Sep 2022 11:50:11.000          316.681            -78.209    22578.365518
                  14 Sep 2022 11:50:12.000          316.673            -78.210    22578.075252
                  14 Sep 2022 11:50:13.000          316.665            -78.210    22577.785103
                  14 Sep 2022 11:50:14.000          316.657            -78.211    22577.495068
                  14 Sep 2022 11:50:15.000          316.649            -78.211    22577.205149
                  14 Sep 2022 11:50:16.000          316.640            -78.212    22576.915345
                  14 Sep 2022 11:50:17.000          316.632            -78.212    22576.625656
                  14 Sep 2022 11:50:18.000          316.624            -78.213    22576.336083
                  14 Sep 2022 11:50:19.000          316.616            -78.213    22576.046625
                  14 Sep 2022 11:50:20.000          316.608            -78.214    22575.757283
                  14 Sep 2022 11:50:21.000          316.600            -78.214    22575.468056
                  14 Sep 2022 11:50:22.000          316.591            -78.215    22575.178945
                  14 Sep 2022 11:50:23.000          316.583            -78.215    22574.889949
                  14 Sep 2022 11:50:24.000          316.575            -78.216    22574.601068
                  14 Sep 2022 11:50:25.000          316.567            -78.216    22574.312303
                  14 Sep 2022 11:50:26.000          316.559            -78.217    22574.023653
                  14 Sep 2022 11:50:27.000          316.551            -78.217    22573.735118
                  14 Sep 2022 11:50:28.000          316.543            -78.218    22573.446699
                  14 Sep 2022 11:50:29.000          316.534            -78.218    22573.158396
                  14 Sep 2022 11:50:30.000          316.526            -78.219    22572.870208
                  14 Sep 2022 11:50:31.000          316.518            -78.219    22572.582135
                  14 Sep 2022 11:50:32.000          316.510            -78.220    22572.294178
                  14 Sep 2022 11:50:33.000          316.502            -78.220    22572.006337
                  14 Sep 2022 11:50:34.000          316.494            -78.221    22571.718611
                  14 Sep 2022 11:50:35.000          316.485            -78.221    22571.431001
                  14 Sep 2022 11:50:36.000          316.477            -78.222    22571.143506
                  14 Sep 2022 11:50:37.000          316.469            -78.222    22570.856127
                  14 Sep 2022 11:50:38.000          316.461            -78.223    22570.568863
                  14 Sep 2022 11:50:39.000          316.453            -78.223    22570.281715
                  14 Sep 2022 11:50:40.000          316.444            -78.224    22569.994682
                  14 Sep 2022 11:50:41.000          316.436            -78.224    22569.707765
                  14 Sep 2022 11:50:42.000          316.428            -78.225    22569.420964
                  14 Sep 2022 11:50:43.000          316.420            -78.225    22569.134279
                  14 Sep 2022 11:50:44.000          316.412            -78.226    22568.847709
                  14 Sep 2022 11:50:45.000          316.404            -78.226    22568.561254
                  14 Sep 2022 11:50:46.000          316.395            -78.227    22568.274915
                  14 Sep 2022 11:50:47.000          316.387            -78.227    22567.988692
                  14 Sep 2022 11:50:48.000          316.379            -78.227    22567.702585
                  14 Sep 2022 11:50:49.000          316.371            -78.228    22567.416594
                  14 Sep 2022 11:50:50.000          316.363            -78.228    22567.130718
                  14 Sep 2022 11:50:51.000          316.354            -78.229    22566.844957
                  14 Sep 2022 11:50:52.000          316.346            -78.229    22566.559313
                  14 Sep 2022 11:50:53.000          316.338            -78.230    22566.273784
                  14 Sep 2022 11:50:54.000          316.330            -78.230    22565.988371
                  14 Sep 2022 11:50:55.000          316.322            -78.231    22565.703074
                  14 Sep 2022 11:50:56.000          316.314            -78.231    22565.417892
                  14 Sep 2022 11:50:57.000          316.305            -78.232    22565.132826
                  14 Sep 2022 11:50:58.000          316.297            -78.232    22564.847876
                  14 Sep 2022 11:50:59.000          316.289            -78.233    22564.563042
                  14 Sep 2022 11:51:00.000          316.281            -78.233    22564.278324
                  14 Sep 2022 11:51:01.000          316.273            -78.234    22563.993721
                  14 Sep 2022 11:51:02.000          316.264            -78.234    22563.709234
                  14 Sep 2022 11:51:03.000          316.256            -78.235    22563.424863
                  14 Sep 2022 11:51:04.000          316.248            -78.235    22563.140608
                  14 Sep 2022 11:51:05.000          316.240            -78.236    22562.856469
                  14 Sep 2022 11:51:06.000          316.232            -78.236    22562.572445
                  14 Sep 2022 11:51:07.000          316.223            -78.237    22562.288538
                  14 Sep 2022 11:51:08.000          316.215            -78.237    22562.004747
                  14 Sep 2022 11:51:09.000          316.207            -78.238    22561.721071
                  14 Sep 2022 11:51:10.000          316.199            -78.238    22561.437511
                  14 Sep 2022 11:51:11.000          316.190            -78.239    22561.154067
                  14 Sep 2022 11:51:12.000          316.182            -78.239    22560.870739
                  14 Sep 2022 11:51:13.000          316.174            -78.240    22560.587527
                  14 Sep 2022 11:51:14.000          316.166            -78.240    22560.304431
                  14 Sep 2022 11:51:15.000          316.158            -78.241    22560.021451
                  14 Sep 2022 11:51:16.000          316.149            -78.241    22559.738587
                  14 Sep 2022 11:51:17.000          316.141            -78.241    22559.455838
                  14 Sep 2022 11:51:18.000          316.133            -78.242    22559.173206
                  14 Sep 2022 11:51:19.000          316.125            -78.242    22558.890690
                  14 Sep 2022 11:51:20.000          316.117            -78.243    22558.608290
                  14 Sep 2022 11:51:21.000          316.108            -78.243    22558.326006
                  14 Sep 2022 11:51:22.000          316.100            -78.244    22558.043837
                  14 Sep 2022 11:51:23.000          316.092            -78.244    22557.761785
                  14 Sep 2022 11:51:24.000          316.084            -78.245    22557.479849
                  14 Sep 2022 11:51:25.000          316.075            -78.245    22557.198029
                  14 Sep 2022 11:51:26.000          316.067            -78.246    22556.916326
                  14 Sep 2022 11:51:27.000          316.059            -78.246    22556.634738
                  14 Sep 2022 11:51:28.000          316.051            -78.247    22556.353266
                  14 Sep 2022 11:51:29.000          316.043            -78.247    22556.071910
                  14 Sep 2022 11:51:30.000          316.034            -78.248    22555.790671
                  14 Sep 2022 11:51:31.000          316.026            -78.248    22555.509547
                  14 Sep 2022 11:51:32.000          316.018            -78.249    22555.228540
                  14 Sep 2022 11:51:33.000          316.010            -78.249    22554.947649
                  14 Sep 2022 11:51:34.000          316.001            -78.250    22554.666874
                  14 Sep 2022 11:51:35.000          315.993            -78.250    22554.386215
                  14 Sep 2022 11:51:36.000          315.985            -78.251    22554.105672
                  14 Sep 2022 11:51:37.000          315.977            -78.251    22553.825246
                  14 Sep 2022 11:51:38.000          315.968            -78.252    22553.544936
                  14 Sep 2022 11:51:39.000          315.960            -78.252    22553.264742
                  14 Sep 2022 11:51:40.000          315.952            -78.253    22552.984664
                  14 Sep 2022 11:51:41.000          315.944            -78.253    22552.704702
                  14 Sep 2022 11:51:42.000          315.935            -78.253    22552.424857
                  14 Sep 2022 11:51:43.000          315.927            -78.254    22552.145128
                  14 Sep 2022 11:51:44.000          315.919            -78.254    22551.865515
                  14 Sep 2022 11:51:45.000          315.911            -78.255    22551.586018
                  14 Sep 2022 11:51:46.000          315.902            -78.255    22551.306638
                  14 Sep 2022 11:51:47.000          315.894            -78.256    22551.027374
                  14 Sep 2022 11:51:48.000          315.886            -78.256    22550.748226
                  14 Sep 2022 11:51:49.000          315.878            -78.257    22550.469194
                  14 Sep 2022 11:51:50.000          315.869            -78.257    22550.190279
                  14 Sep 2022 11:51:51.000          315.861            -78.258    22549.911480
                  14 Sep 2022 11:51:52.000          315.853            -78.258    22549.632798
                  14 Sep 2022 11:51:53.000          315.845            -78.259    22549.354232
                  14 Sep 2022 11:51:54.000          315.836            -78.259    22549.075782
                  14 Sep 2022 11:51:55.000          315.828            -78.260    22548.797448
                  14 Sep 2022 11:51:56.000          315.820            -78.260    22548.519231
                  14 Sep 2022 11:51:57.000          315.812            -78.261    22548.241131
                  14 Sep 2022 11:51:58.000          315.803            -78.261    22547.963146
                  14 Sep 2022 11:51:59.000          315.795            -78.262    22547.685279
                  14 Sep 2022 11:52:00.000          315.787            -78.262    22547.407527
                  14 Sep 2022 11:52:01.000          315.779            -78.263    22547.129892
                  14 Sep 2022 11:52:02.000          315.770            -78.263    22546.852373
                  14 Sep 2022 11:52:03.000          315.762            -78.263    22546.574971
                  14 Sep 2022 11:52:04.000          315.754            -78.264    22546.297685
                  14 Sep 2022 11:52:05.000          315.746            -78.264    22546.020516
                  14 Sep 2022 11:52:06.000          315.737            -78.265    22545.743463
                  14 Sep 2022 11:52:07.000          315.729            -78.265    22545.466527
                  14 Sep 2022 11:52:08.000          315.721            -78.266    22545.189707
                  14 Sep 2022 11:52:09.000          315.713            -78.266    22544.913004
                  14 Sep 2022 11:52:10.000          315.704            -78.267    22544.636417
                  14 Sep 2022 11:52:11.000          315.696            -78.267    22544.359947
                  14 Sep 2022 11:52:12.000          315.688            -78.268    22544.083594
                  14 Sep 2022 11:52:13.000          315.679            -78.268    22543.807356
                  14 Sep 2022 11:52:14.000          315.671            -78.269    22543.531236
                  14 Sep 2022 11:52:15.000          315.663            -78.269    22543.255232
                  14 Sep 2022 11:52:16.000          315.655            -78.270    22542.979344
                  14 Sep 2022 11:52:17.000          315.646            -78.270    22542.703573
                  14 Sep 2022 11:52:18.000          315.638            -78.271    22542.427919
                  14 Sep 2022 11:52:19.000          315.630            -78.271    22542.152381
                  14 Sep 2022 11:52:20.000          315.621            -78.272    22541.876960
                  14 Sep 2022 11:52:21.000          315.613            -78.272    22541.601656
                  14 Sep 2022 11:52:22.000          315.605            -78.273    22541.326468
                  14 Sep 2022 11:52:23.000          315.597            -78.273    22541.051397
                  14 Sep 2022 11:52:24.000          315.588            -78.273    22540.776443
                  14 Sep 2022 11:52:25.000          315.580            -78.274    22540.501605
                  14 Sep 2022 11:52:26.000          315.572            -78.274    22540.226884
                  14 Sep 2022 11:52:27.000          315.563            -78.275    22539.952279
                  14 Sep 2022 11:52:28.000          315.555            -78.275    22539.677791
                  14 Sep 2022 11:52:29.000          315.547            -78.276    22539.403420
                  14 Sep 2022 11:52:30.000          315.539            -78.276    22539.129166
                  14 Sep 2022 11:52:31.000          315.530            -78.277    22538.855028
                  14 Sep 2022 11:52:32.000          315.522            -78.277    22538.581007
                  14 Sep 2022 11:52:33.000          315.514            -78.278    22538.307103
                  14 Sep 2022 11:52:34.000          315.505            -78.278    22538.033316
