src/main/resources/SingleSat/PRN16S10.txt

                                                                          20 Feb 2023 13:54:30
Civil Air Patrol Use Only
Satellite-gps-svn56-To-Facility-Xian:  Inview Azimuth, Elevation, & Range


gps-svn56-To-Xian - AER reported in the object's default AER frame
------------------------------------------------------------------
                         Time (UTCG)          Azimuth (deg)    Elevation (deg)     Range (km) 
                  ------------------------    -------------    ---------------    ------------
                  14 Sep 2022 11:34:04.296          343.182            -76.914    23534.694524
                  14 Sep 2022 11:34:14.000          343.203            -76.920    23527.454693
                  14 Sep 2022 11:34:24.000          343.225            -76.926    23519.997467
                  14 Sep 2022 11:34:34.000          343.247            -76.932    23512.543460
                  14 Sep 2022 11:34:44.000          343.270            -76.938    23505.092690
                  14 Sep 2022 11:34:54.000          343.292            -76.944    23497.645177
                  14 Sep 2022 11:35:04.000          343.314            -76.950    23490.200939
                  14 Sep 2022 11:35:14.000          343.336            -76.956    23482.759996
                  14 Sep 2022 11:35:24.000          343.358            -76.963    23475.322367
                  14 Sep 2022 11:35:34.000          343.380            -76.969    23467.888070
                  14 Sep 2022 11:35:44.000          343.402            -76.975    23460.457124
                  14 Sep 2022 11:35:54.000          343.424            -76.981    23453.029549
                  14 Sep 2022 11:36:04.000          343.447            -76.988    23445.605362
                  14 Sep 2022 11:36:14.000          343.469            -76.994    23438.184585
                  14 Sep 2022 11:36:24.000          343.491            -77.000    23430.767234
                  14 Sep 2022 11:36:34.000          343.513            -77.007    23423.353329
                  14 Sep 2022 11:36:44.000          343.535            -77.013    23415.942889
                  14 Sep 2022 11:36:54.000          343.557            -77.020    23408.535934
                  14 Sep 2022 11:37:04.000          343.580            -77.026    23401.132481
                  14 Sep 2022 11:37:14.000          343.602            -77.033    23393.732550
                  14 Sep 2022 11:37:24.000          343.624            -77.039    23386.336159
                  14 Sep 2022 11:37:34.000          343.646            -77.046    23378.943329
                  14 Sep 2022 11:37:44.000          343.668            -77.052    23371.554077
                  14 Sep 2022 11:37:54.000          343.691            -77.059    23364.168422
                  14 Sep 2022 11:38:04.000          343.713            -77.065    23356.786384
                  14 Sep 2022 11:38:14.000          343.735            -77.072    23349.407981
                  14 Sep 2022 11:38:24.000          343.757            -77.079    23342.033233
                  14 Sep 2022 11:38:34.000          343.780            -77.085    23334.662157
                  14 Sep 2022 11:38:44.000          343.802            -77.092    23327.294774
                  14 Sep 2022 11:38:54.000          343.824            -77.099    23319.931102
                  14 Sep 2022 11:39:04.000          343.846            -77.106    23312.571159
                  14 Sep 2022 11:39:14.000          343.869            -77.112    23305.214966
                  14 Sep 2022 11:39:24.000          343.891            -77.119    23297.862540
                  14 Sep 2022 11:39:34.000          343.913            -77.126    23290.513901
                  14 Sep 2022 11:39:44.000          343.935            -77.133    23283.169067
                  14 Sep 2022 11:39:54.000          343.958            -77.140    23275.828058
                  14 Sep 2022 11:40:04.000          343.980            -77.147    23268.490892
                  14 Sep 2022 11:40:14.000          344.002            -77.153    23261.157588
                  14 Sep 2022 11:40:24.000          344.025            -77.160    23253.828165
                  14 Sep 2022 11:40:34.000          344.047            -77.167    23246.502642
                  14 Sep 2022 11:40:44.000          344.069            -77.174    23239.181038
                  14 Sep 2022 11:40:54.000          344.092            -77.181    23231.863372
                  14 Sep 2022 11:41:04.000          344.114            -77.189    23224.549662
                  14 Sep 2022 11:41:14.000          344.137            -77.196    23217.239928
                  14 Sep 2022 11:41:24.000          344.159            -77.203    23209.934188
                  14 Sep 2022 11:41:34.000          344.181            -77.210    23202.632461
                  14 Sep 2022 11:41:44.000          344.204            -77.217    23195.334766
                  14 Sep 2022 11:41:54.000          344.226            -77.224    23188.041122
                  14 Sep 2022 11:42:04.000          344.249            -77.231    23180.751548
                  14 Sep 2022 11:42:14.000          344.271            -77.239    23173.466062
                  14 Sep 2022 11:42:24.000          344.293            -77.246    23166.184684
                  14 Sep 2022 11:42:34.000          344.316            -77.253    23158.907432
                  14 Sep 2022 11:42:44.000          344.338            -77.260    23151.634325
                  14 Sep 2022 11:42:54.000          344.361            -77.268    23144.365382
                  14 Sep 2022 11:43:04.000          344.383            -77.275    23137.100622
                  14 Sep 2022 11:43:14.000          344.406            -77.282    23129.840063
                  14 Sep 2022 11:43:24.000          344.428            -77.290    23122.583725
                  14 Sep 2022 11:43:34.000          344.451            -77.297    23115.331626
                  14 Sep 2022 11:43:44.000          344.473            -77.305    23108.083784
                  14 Sep 2022 11:43:54.000          344.496            -77.312    23100.840220
                  14 Sep 2022 11:44:04.000          344.518            -77.320    23093.600951
                  14 Sep 2022 11:44:14.000          344.541            -77.327    23086.365997
                  14 Sep 2022 11:44:24.000          344.564            -77.335    23079.135376
                  14 Sep 2022 11:44:34.000          344.586            -77.342    23071.909106
                  14 Sep 2022 11:44:44.000          344.609            -77.350    23064.687208
                  14 Sep 2022 11:44:54.000          344.631            -77.358    23057.469699
                  14 Sep 2022 11:45:04.000          344.654            -77.365    23050.256598
                  14 Sep 2022 11:45:14.000          344.677            -77.373    23043.047924
                  14 Sep 2022 11:45:24.000          344.699            -77.381    23035.843696
                  14 Sep 2022 11:45:34.000          344.722            -77.388    23028.643932
                  14 Sep 2022 11:45:44.000          344.745            -77.396    23021.448652
                  14 Sep 2022 11:45:54.000          344.767            -77.404    23014.257874
                  14 Sep 2022 11:46:04.000          344.790            -77.412    23007.071616
                  14 Sep 2022 11:46:14.000          344.813            -77.419    22999.889898
                  14 Sep 2022 11:46:24.000          344.835            -77.427    22992.712738
                  14 Sep 2022 11:46:34.000          344.858            -77.435    22985.540155
                  14 Sep 2022 11:46:44.000          344.881            -77.443    22978.372167
                  14 Sep 2022 11:46:54.000          344.904            -77.451    22971.208794
                  14 Sep 2022 11:47:04.000          344.926            -77.459    22964.050054
                  14 Sep 2022 11:47:14.000          344.949            -77.467    22956.895965
                  14 Sep 2022 11:47:24.000          344.972            -77.475    22949.746547
                  14 Sep 2022 11:47:34.000          344.995            -77.483    22942.601818
                  14 Sep 2022 11:47:44.000          345.018            -77.491    22935.461796
                  14 Sep 2022 11:47:54.000          345.041            -77.499    22928.326501
                  14 Sep 2022 11:48:04.000          345.063            -77.507    22921.195951
                  14 Sep 2022 11:48:14.000          345.086            -77.515    22914.070164
                  14 Sep 2022 11:48:24.000          345.109            -77.523    22906.949160
                  14 Sep 2022 11:48:34.000          345.132            -77.532    22899.832957
                  14 Sep 2022 11:48:44.000          345.155            -77.540    22892.721573
                  14 Sep 2022 11:48:54.000          345.178            -77.548    22885.615027
                  14 Sep 2022 11:49:04.000          345.201            -77.556    22878.513338
                  14 Sep 2022 11:49:14.000          345.224            -77.565    22871.416524
                  14 Sep 2022 11:49:24.000          345.247            -77.573    22864.324605
                  14 Sep 2022 11:49:34.000          345.270            -77.581    22857.237598
                  14 Sep 2022 11:49:44.000          345.293            -77.590    22850.155522
                  14 Sep 2022 11:49:54.000          345.316            -77.598    22843.078396
                  14 Sep 2022 11:50:04.000          345.339            -77.606    22836.006238
                  14 Sep 2022 11:50:14.000          345.362            -77.615    22828.939066
                  14 Sep 2022 11:50:24.000          345.385            -77.623    22821.876900
                  14 Sep 2022 11:50:34.000          345.408            -77.632    22814.819758
                  14 Sep 2022 11:50:44.000          345.431            -77.640    22807.767659
                  14 Sep 2022 11:50:54.000          345.455            -77.649    22800.720620
                  14 Sep 2022 11:51:04.000          345.478            -77.657    22793.678661
                  14 Sep 2022 11:51:14.000          345.501            -77.666    22786.641800
                  14 Sep 2022 11:51:24.000          345.524            -77.674    22779.610055
                  14 Sep 2022 11:51:34.000          345.547            -77.683    22772.583445
                  14 Sep 2022 11:51:44.000          345.571            -77.692    22765.561989
                  14 Sep 2022 11:51:54.000          345.594            -77.700    22758.545704
                  14 Sep 2022 11:52:04.000          345.617            -77.709    22751.534610
                  14 Sep 2022 11:52:14.000          345.640            -77.718    22744.528725
                  14 Sep 2022 11:52:24.000          345.664            -77.726    22737.528066
                  14 Sep 2022 11:52:34.000          345.687            -77.735    22730.532654
                  14 Sep 2022 11:52:44.000          345.710            -77.744    22723.542505
                  14 Sep 2022 11:52:54.000          345.734            -77.753    22716.557639
                  14 Sep 2022 11:53:04.000          345.757            -77.762    22709.578074
                  14 Sep 2022 11:53:14.000          345.781            -77.771    22702.603828
                  14 Sep 2022 11:53:24.000          345.804            -77.780    22695.634920
                  14 Sep 2022 11:53:34.000          345.827            -77.788    22688.671368
                  14 Sep 2022 11:53:44.000          345.851            -77.797    22681.713190
                  14 Sep 2022 11:53:54.000          345.874            -77.806    22674.760405
                  14 Sep 2022 11:54:04.000          345.898            -77.815    22667.813031
                  14 Sep 2022 11:54:14.000          345.922            -77.824    22660.871086
                  14 Sep 2022 11:54:24.000          345.945            -77.833    22653.934590
                  14 Sep 2022 11:54:34.000          345.969            -77.842    22647.003559
                  14 Sep 2022 11:54:44.000          345.992            -77.852    22640.078012
                  14 Sep 2022 11:54:54.000          346.016            -77.861    22633.157969
                  14 Sep 2022 11:55:04.000          346.040            -77.870    22626.243446
                  14 Sep 2022 11:55:14.000          346.063            -77.879    22619.334462
                  14 Sep 2022 11:55:24.000          346.087            -77.888    22612.431036
                  14 Sep 2022 11:55:34.000          346.111            -77.897    22605.533185
                  14 Sep 2022 11:55:44.000          346.134            -77.907    22598.640929
                  14 Sep 2022 11:55:54.000          346.158            -77.916    22591.754284
                  14 Sep 2022 11:56:04.000          346.182            -77.925    22584.873270
                  14 Sep 2022 11:56:14.000          346.206            -77.935    22577.997904
                  14 Sep 2022 11:56:24.000          346.229            -77.944    22571.128205
                  14 Sep 2022 11:56:34.000          346.253            -77.953    22564.264191
                  14 Sep 2022 11:56:44.000          346.277            -77.963    22557.405880
                  14 Sep 2022 11:56:54.000          346.301            -77.972    22550.553291
                  14 Sep 2022 11:57:04.000          346.325            -77.982    22543.706440
                  14 Sep 2022 11:57:14.000          346.349            -77.991    22536.865348
                  14 Sep 2022 11:57:24.000          346.373            -78.001    22530.030030
                  14 Sep 2022 11:57:34.000          346.397            -78.010    22523.200507
                  14 Sep 2022 11:57:44.000          346.421            -78.020    22516.376795
                  14 Sep 2022 11:57:54.000          346.445            -78.029    22509.558913
                  14 Sep 2022 11:58:04.000          346.469            -78.039    22502.746879
                  14 Sep 2022 11:58:14.000          346.493            -78.048    22495.940711
                  14 Sep 2022 11:58:24.000          346.517            -78.058    22489.140428
                  14 Sep 2022 11:58:34.000          346.541            -78.068    22482.346046
                  14 Sep 2022 11:58:44.000          346.566            -78.077    22475.557584
                  14 Sep 2022 11:58:54.000          346.590            -78.087    22468.775061
                  14 Sep 2022 11:59:04.000          346.614            -78.097    22461.998493
                  14 Sep 2022 11:59:14.000          346.638            -78.107    22455.227900
                  14 Sep 2022 11:59:24.000          346.663            -78.116    22448.463298
                  14 Sep 2022 11:59:34.000          346.687            -78.126    22441.704707
                  14 Sep 2022 11:59:44.000          346.711            -78.136    22434.952144
                  14 Sep 2022 11:59:54.000          346.736            -78.146    22428.205626
                  14 Sep 2022 12:00:04.000          346.760            -78.156    22421.465172
                  14 Sep 2022 12:00:14.000          346.784            -78.166    22414.730799
                  14 Sep 2022 12:00:24.000          346.809            -78.176    22408.002527
                  14 Sep 2022 12:00:34.000          346.833            -78.186    22401.280371
                  14 Sep 2022 12:00:44.000          346.858            -78.196    22394.564351
                  14 Sep 2022 12:00:54.000          346.882            -78.206    22387.854484
                  14 Sep 2022 12:01:04.000          346.907            -78.216    22381.150788
                  14 Sep 2022 12:01:14.000          346.932            -78.226    22374.453280
                  14 Sep 2022 12:01:24.000          346.956            -78.236    22367.761979
                  14 Sep 2022 12:01:34.000          346.981            -78.246    22361.076902
                  14 Sep 2022 12:01:44.000          347.006            -78.256    22354.398067
                  14 Sep 2022 12:01:54.000          347.030            -78.266    22347.725493
                  14 Sep 2022 12:02:04.000          347.055            -78.277    22341.059195
                  14 Sep 2022 12:02:14.000          347.080            -78.287    22334.399193
                  14 Sep 2022 12:02:24.000          347.105            -78.297    22327.745504
                  14 Sep 2022 12:02:34.000          347.129            -78.307    22321.098145
                  14 Sep 2022 12:02:44.000          347.154            -78.318    22314.457135
                  14 Sep 2022 12:02:54.000          347.179            -78.328    22307.822490
                  14 Sep 2022 12:03:04.000          347.204            -78.338    22301.194230
                  14 Sep 2022 12:03:14.000          347.229            -78.349    22294.572370
                  14 Sep 2022 12:03:24.000          347.254            -78.359    22287.956930
                  14 Sep 2022 12:03:34.000          347.279            -78.369    22281.347926
                  14 Sep 2022 12:03:44.000          347.304            -78.380    22274.745376
                  14 Sep 2022 12:03:54.000          347.329            -78.390    22268.149297
                  14 Sep 2022 12:04:04.000          347.354            -78.401    22261.559708
                  14 Sep 2022 12:04:14.000          347.380            -78.411    22254.976626
                  14 Sep 2022 12:04:24.000          347.405            -78.422    22248.400067
                  14 Sep 2022 12:04:34.000          347.430            -78.432    22241.830050
                  14 Sep 2022 12:04:44.000          347.455            -78.443    22235.266593
                  14 Sep 2022 12:04:54.000          347.481            -78.454    22228.709712
                  14 Sep 2022 12:05:04.000          347.506            -78.464    22222.159425
                  14 Sep 2022 12:05:14.000          347.531            -78.475    22215.615750
                  14 Sep 2022 12:05:24.000          347.557            -78.486    22209.078704
                  14 Sep 2022 12:05:34.000          347.582            -78.496    22202.548304
                  14 Sep 2022 12:05:44.000          347.608            -78.507    22196.024568
                  14 Sep 2022 12:05:54.000          347.633            -78.518    22189.507513
                  14 Sep 2022 12:06:04.000          347.659            -78.528    22182.997156
                  14 Sep 2022 12:06:14.000          347.684            -78.539    22176.493516
                  14 Sep 2022 12:06:24.000          347.710            -78.550    22169.996608
                  14 Sep 2022 12:06:34.000          347.735            -78.561    22163.506451
                  14 Sep 2022 12:06:44.000          347.761            -78.572    22157.023061
                  14 Sep 2022 12:06:54.000          347.787            -78.583    22150.546456
                  14 Sep 2022 12:07:04.000          347.813            -78.594    22144.076654
                  14 Sep 2022 12:07:14.000          347.838            -78.605    22137.613670
                  14 Sep 2022 12:07:24.000          347.864            -78.616    22131.157524
                  14 Sep 2022 12:07:34.000          347.890            -78.627    22124.708231
                  14 Sep 2022 12:07:44.000          347.916            -78.638    22118.265809
                  14 Sep 2022 12:07:54.000          347.942            -78.649    22111.830275
                  14 Sep 2022 12:08:04.000          347.968            -78.660    22105.401647
                  14 Sep 2022 12:08:14.000          347.994            -78.671    22098.979940
                  14 Sep 2022 12:08:24.000          348.020            -78.682    22092.565174
                  14 Sep 2022 12:08:34.000          348.046            -78.693    22086.157363
                  14 Sep 2022 12:08:44.000          348.072            -78.704    22079.756527
                  14 Sep 2022 12:08:54.000          348.099            -78.715    22073.362681
                  14 Sep 2022 12:09:04.000          348.125            -78.727    22066.975842
                  14 Sep 2022 12:09:14.000          348.151            -78.738    22060.596028
                  14 Sep 2022 12:09:24.000          348.177            -78.749    22054.223256
                  14 Sep 2022 12:09:34.000          348.204            -78.760    22047.857542
                  14 Sep 2022 12:09:44.000          348.230            -78.772    22041.498904
                  14 Sep 2022 12:09:54.000          348.257            -78.783    22035.147358
                  14 Sep 2022 12:10:04.000          348.283            -78.794    22028.802922
                  14 Sep 2022 12:10:14.000          348.310            -78.806    22022.465611
                  14 Sep 2022 12:10:24.000          348.336            -78.817    22016.135444
                  14 Sep 2022 12:10:34.000          348.363            -78.829    22009.812437
                  14 Sep 2022 12:10:44.000          348.390            -78.840    22003.496606
                  14 Sep 2022 12:10:54.000          348.416            -78.852    21997.187969
                  14 Sep 2022 12:11:04.000          348.443            -78.863    21990.886542
                  14 Sep 2022 12:11:14.000          348.470            -78.875    21984.592342
                  14 Sep 2022 12:11:24.000          348.497            -78.886    21978.305386
                  14 Sep 2022 12:11:34.000          348.523            -78.898    21972.025691
                  14 Sep 2022 12:11:44.000          348.550            -78.909    21965.753272
                  14 Sep 2022 12:11:54.000          348.577            -78.921    21959.488148
                  14 Sep 2022 12:12:04.000          348.604            -78.933    21953.230334
                  14 Sep 2022 12:12:14.000          348.631            -78.944    21946.979847
                  14 Sep 2022 12:12:24.000          348.659            -78.956    21940.736704
                  14 Sep 2022 12:12:34.000          348.686            -78.968    21934.500921
                  14 Sep 2022 12:12:44.000          348.713            -78.979    21928.272516
                  14 Sep 2022 12:12:54.000          348.740            -78.991    21922.051503
                  14 Sep 2022 12:13:04.000          348.767            -79.003    21915.837901
                  14 Sep 2022 12:13:14.000          348.795            -79.015    21909.631725
                  14 Sep 2022 12:13:24.000          348.822            -79.026    21903.432993
                  14 Sep 2022 12:13:34.000          348.850            -79.038    21897.241719
                  14 Sep 2022 12:13:44.000          348.877            -79.050    21891.057922
                  14 Sep 2022 12:13:54.000          348.905            -79.062    21884.881617
                  14 Sep 2022 12:14:04.000          348.932            -79.074    21878.712820
                  14 Sep 2022 12:14:14.000          348.960            -79.086    21872.551549
                  14 Sep 2022 12:14:24.000          348.988            -79.098    21866.397819
                  14 Sep 2022 12:14:34.000          349.015            -79.110    21860.251647
                  14 Sep 2022 12:14:44.000          349.043            -79.122    21854.113049
                  14 Sep 2022 12:14:54.000          349.071            -79.134    21847.982041
                  14 Sep 2022 12:15:04.000          349.099            -79.146    21841.858639
                  14 Sep 2022 12:15:14.000          349.127            -79.158    21835.742861
                  14 Sep 2022 12:15:24.000          349.155            -79.170    21829.634721
                  14 Sep 2022 12:15:34.000          349.183            -79.182    21823.534237
                  14 Sep 2022 12:15:44.000          349.211            -79.195    21817.441424
                  14 Sep 2022 12:15:54.000          349.239            -79.207    21811.356299
                  14 Sep 2022 12:16:04.000          349.267            -79.219    21805.278877
                  14 Sep 2022 12:16:14.000          349.296            -79.231    21799.209175
                  14 Sep 2022 12:16:24.000          349.324            -79.243    21793.147209
                  14 Sep 2022 12:16:34.000          349.352            -79.256    21787.092994
                  14 Sep 2022 12:16:44.000          349.381            -79.268    21781.046548
                  14 Sep 2022 12:16:54.000          349.409            -79.280    21775.007885
                  14 Sep 2022 12:17:04.000          349.438            -79.293    21768.977022
                  14 Sep 2022 12:17:14.000          349.466            -79.305    21762.953975
                  14 Sep 2022 12:17:24.000          349.495            -79.317    21756.938759
                  14 Sep 2022 12:17:34.000          349.524            -79.330    21750.931391
                  14 Sep 2022 12:17:44.000          349.553            -79.342    21744.931887
                  14 Sep 2022 12:17:54.000          349.581            -79.355    21738.940262
                  14 Sep 2022 12:18:04.000          349.610            -79.367    21732.956532
                  14 Sep 2022 12:18:14.000          349.639            -79.380    21726.980712
                  14 Sep 2022 12:18:24.000          349.668            -79.392    21721.012820
                  14 Sep 2022 12:18:34.000          349.697            -79.405    21715.052870
                  14 Sep 2022 12:18:44.000          349.726            -79.417    21709.100878
                  14 Sep 2022 12:18:54.000          349.756            -79.430    21703.156860
                  14 Sep 2022 12:19:04.000          349.785            -79.442    21697.220832
                  14 Sep 2022 12:19:14.000          349.814            -79.455    21691.292809
                  14 Sep 2022 12:19:24.000          349.843            -79.468    21685.372807
                  14 Sep 2022 12:19:34.000          349.873            -79.480    21679.460841
                  14 Sep 2022 12:19:44.000          349.902            -79.493    21673.556927
                  14 Sep 2022 12:19:54.000          349.932            -79.506    21667.661081
                  14 Sep 2022 12:20:04.000          349.961            -79.519    21661.773317
                  14 Sep 2022 12:20:14.000          349.991            -79.531    21655.893652
                  14 Sep 2022 12:20:24.000          350.021            -79.544    21650.022102
                  14 Sep 2022 12:20:34.000          350.051            -79.557    21644.158680
                  14 Sep 2022 12:20:44.000          350.081            -79.570    21638.303404
                  14 Sep 2022 12:20:54.000          350.110            -79.583    21632.456288
                  14 Sep 2022 12:21:04.000          350.140            -79.596    21626.617347
                  14 Sep 2022 12:21:14.000          350.171            -79.608    21620.786598
                  14 Sep 2022 12:21:24.000          350.201            -79.621    21614.964054
                  14 Sep 2022 12:21:34.000          350.231            -79.634    21609.149732
                  14 Sep 2022 12:21:44.000          350.261            -79.647    21603.343647
                  14 Sep 2022 12:21:54.000          350.291            -79.660    21597.545814
                  14 Sep 2022 12:22:04.000          350.322            -79.673    21591.756248
                  14 Sep 2022 12:22:14.000          350.352            -79.686    21585.974964
                  14 Sep 2022 12:22:24.000          350.383            -79.699    21580.201978
                  14 Sep 2022 12:22:34.000          350.413            -79.713    21574.437305
                  14 Sep 2022 12:22:44.000          350.444            -79.726    21568.680959
                  14 Sep 2022 12:22:54.000          350.475            -79.739    21562.932956
                  14 Sep 2022 12:23:04.000          350.506            -79.752    21557.193310
                  14 Sep 2022 12:23:14.000          350.536            -79.765    21551.462038
                  14 Sep 2022 12:23:24.000          350.567            -79.778    21545.739153
                  14 Sep 2022 12:23:34.000          350.598            -79.791    21540.024671
                  14 Sep 2022 12:23:44.000          350.629            -79.805    21534.318607
                  14 Sep 2022 12:23:54.000          350.661            -79.818    21528.620975
                  14 Sep 2022 12:24:04.000          350.692            -79.831    21522.931790
                  14 Sep 2022 12:24:14.000          350.723            -79.845    21517.251068
                  14 Sep 2022 12:24:24.000          350.754            -79.858    21511.578822
                  14 Sep 2022 12:24:34.000          350.786            -79.871    21505.915069
                  14 Sep 2022 12:24:44.000          350.817            -79.885    21500.259822
                  14 Sep 2022 12:24:54.000          350.849            -79.898    21494.613096
                  14 Sep 2022 12:25:04.000          350.881            -79.911    21488.974906
                  14 Sep 2022 12:25:14.000          350.912            -79.925    21483.345266
                  14 Sep 2022 12:25:24.000          350.944            -79.938    21477.724192
                  14 Sep 2022 12:25:34.000          350.976            -79.952    21472.111697
                  14 Sep 2022 12:25:44.000          351.008            -79.965    21466.507797
                  14 Sep 2022 12:25:54.000          351.040            -79.979    21460.912506
                  14 Sep 2022 12:26:04.000          351.072            -79.992    21455.325838
                  14 Sep 2022 12:26:14.000          351.105            -80.006    21449.747808
                  14 Sep 2022 12:26:24.000          351.137            -80.019    21444.178430
                  14 Sep 2022 12:26:34.000          351.169            -80.033    21438.617719
                  14 Sep 2022 12:26:44.000          351.202            -80.047    21433.065690
                  14 Sep 2022 12:26:54.000          351.234            -80.060    21427.522355
                  14 Sep 2022 12:27:04.000          351.267            -80.074    21421.987731
                  14 Sep 2022 12:27:14.000          351.300            -80.087    21416.461830
                  14 Sep 2022 12:27:24.000          351.332            -80.101    21410.944668
                  14 Sep 2022 12:27:34.000          351.365            -80.115    21405.436259
                  14 Sep 2022 12:27:44.000          351.398            -80.129    21399.936616
                  14 Sep 2022 12:27:54.000          351.431            -80.142    21394.445754
                  14 Sep 2022 12:28:04.000          351.464            -80.156    21388.963687
                  14 Sep 2022 12:28:14.000          351.498            -80.170    21383.490430
                  14 Sep 2022 12:28:24.000          351.531            -80.184    21378.025996
                  14 Sep 2022 12:28:34.000          351.564            -80.198    21372.570399
                  14 Sep 2022 12:28:44.000          351.598            -80.211    21367.123653
                  14 Sep 2022 12:28:54.000          351.631            -80.225    21361.685773
                  14 Sep 2022 12:29:04.000          351.665            -80.239    21356.256772
                  14 Sep 2022 12:29:14.000          351.699            -80.253    21350.836664
                  14 Sep 2022 12:29:24.000          351.732            -80.267    21345.425464
                  14 Sep 2022 12:29:34.000          351.766            -80.281    21340.023184
                  14 Sep 2022 12:29:44.000          351.800            -80.295    21334.629839
                  14 Sep 2022 12:29:54.000          351.834            -80.309    21329.245443
                  14 Sep 2022 12:30:04.000          351.869            -80.323    21323.870009
                  14 Sep 2022 12:30:14.000          351.903            -80.337    21318.503551
                  14 Sep 2022 12:30:24.000          351.937            -80.351    21313.146082
                  14 Sep 2022 12:30:34.000          351.972            -80.365    21307.797617
                  14 Sep 2022 12:30:44.000          352.006            -80.379    21302.458170
                  14 Sep 2022 12:30:54.000          352.041            -80.394    21297.127752
                  14 Sep 2022 12:31:04.000          352.075            -80.408    21291.806379
                  14 Sep 2022 12:31:14.000          352.110            -80.422    21286.494064
                  14 Sep 2022 12:31:24.000          352.145            -80.436    21281.190819
                  14 Sep 2022 12:31:34.000          352.180            -80.450    21275.896660
                  14 Sep 2022 12:31:44.000          352.215            -80.464    21270.611598
                  14 Sep 2022 12:31:54.000          352.251            -80.479    21265.335648
                  14 Sep 2022 12:32:04.000          352.286            -80.493    21260.068823
                  14 Sep 2022 12:32:14.000          352.321            -80.507    21254.811136
                  14 Sep 2022 12:32:24.000          352.357            -80.522    21249.562601
                  14 Sep 2022 12:32:34.000          352.392            -80.536    21244.323230
                  14 Sep 2022 12:32:44.000          352.428            -80.550    21239.093037
                  14 Sep 2022 12:32:54.000          352.464            -80.565    21233.872035
                  14 Sep 2022 12:33:04.000          352.500            -80.579    21228.660238
                  14 Sep 2022 12:33:14.000          352.536            -80.593    21223.457658
                  14 Sep 2022 12:33:24.000          352.572            -80.608    21218.264308
                  14 Sep 2022 12:33:34.000          352.608            -80.622    21213.080202
                  14 Sep 2022 12:33:44.000          352.645            -80.637    21207.905353
                  14 Sep 2022 12:33:54.000          352.681            -80.651    21202.739773
                  14 Sep 2022 12:34:04.000          352.718            -80.666    21197.583476
                  14 Sep 2022 12:34:14.000          352.754            -80.680    21192.436474
                  14 Sep 2022 12:34:24.000          352.791            -80.695    21187.298781
                  14 Sep 2022 12:34:34.000          352.828            -80.709    21182.170408
                  14 Sep 2022 12:34:44.000          352.865            -80.724    21177.051370
                  14 Sep 2022 12:34:54.000          352.902            -80.738    21171.941678
                  14 Sep 2022 12:35:04.000          352.939            -80.753    21166.841346
                  14 Sep 2022 12:35:14.000          352.976            -80.768    21161.750387
                  14 Sep 2022 12:35:24.000          353.014            -80.782    21156.668812
                  14 Sep 2022 12:35:34.000          353.051            -80.797    21151.596634
                  14 Sep 2022 12:35:44.000          353.089            -80.812    21146.533867
                  14 Sep 2022 12:35:54.000          353.127            -80.826    21141.480522
                  14 Sep 2022 12:36:04.000          353.165            -80.841    21136.436612
                  14 Sep 2022 12:36:14.000          353.203            -80.856    21131.402151
                  14 Sep 2022 12:36:24.000          353.241            -80.870    21126.377149
                  14 Sep 2022 12:36:34.000          353.279            -80.885    21121.361620
                  14 Sep 2022 12:36:44.000          353.317            -80.900    21116.355576
                  14 Sep 2022 12:36:54.000          353.356            -80.915    21111.359029
                  14 Sep 2022 12:37:04.000          353.394            -80.930    21106.371991
                  14 Sep 2022 12:37:14.000          353.433            -80.945    21101.394476
                  14 Sep 2022 12:37:24.000          353.472            -80.959    21096.426495
                  14 Sep 2022 12:37:34.000          353.511            -80.974    21091.468059
                  14 Sep 2022 12:37:44.000          353.550            -80.989    21086.519183
                  14 Sep 2022 12:37:54.000          353.589            -81.004    21081.579877
                  14 Sep 2022 12:38:04.000          353.628            -81.019    21076.650153
                  14 Sep 2022 12:38:14.000          353.668            -81.034    21071.730025
                  14 Sep 2022 12:38:24.000          353.707            -81.049    21066.819503
                  14 Sep 2022 12:38:34.000          353.747            -81.064    21061.918600
                  14 Sep 2022 12:38:44.000          353.787            -81.079    21057.027327
                  14 Sep 2022 12:38:54.000          353.827            -81.094    21052.145697
                  14 Sep 2022 12:39:04.000          353.867            -81.109    21047.273722
                  14 Sep 2022 12:39:14.000          353.907            -81.124    21042.411412
                  14 Sep 2022 12:39:24.000          353.947            -81.139    21037.558781
                  14 Sep 2022 12:39:34.000          353.988            -81.154    21032.715840
                  14 Sep 2022 12:39:44.000          354.028            -81.169    21027.882600
                  14 Sep 2022 12:39:54.000          354.069            -81.184    21023.059073
                  14 Sep 2022 12:40:04.000          354.110            -81.199    21018.245271
                  14 Sep 2022 12:40:14.000          354.151            -81.215    21013.441205
                  14 Sep 2022 12:40:24.000          354.192            -81.230    21008.646888
                  14 Sep 2022 12:40:34.000          354.233            -81.245    21003.862330
                  14 Sep 2022 12:40:44.000          354.275            -81.260    20999.087542
                  14 Sep 2022 12:40:54.000          354.316            -81.275    20994.322538
                  14 Sep 2022 12:41:04.000          354.358            -81.291    20989.567327
                  14 Sep 2022 12:41:14.000          354.400            -81.306    20984.821921
                  14 Sep 2022 12:41:24.000          354.442            -81.321    20980.086332
                  14 Sep 2022 12:41:34.000          354.484            -81.336    20975.360570
                  14 Sep 2022 12:41:44.000          354.526            -81.352    20970.644648
                  14 Sep 2022 12:41:54.000          354.569            -81.367    20965.938576
                  14 Sep 2022 12:42:04.000          354.611            -81.382    20961.242365
                  14 Sep 2022 12:42:14.000          354.654            -81.398    20956.556027
                  14 Sep 2022 12:42:24.000          354.697            -81.413    20951.879573
                  14 Sep 2022 12:42:34.000          354.740            -81.429    20947.213013
                  14 Sep 2022 12:42:44.000          354.783            -81.444    20942.556359
                  14 Sep 2022 12:42:54.000          354.826            -81.459    20937.909622
                  14 Sep 2022 12:43:04.000          354.870            -81.475    20933.272812
                  14 Sep 2022 12:43:14.000          354.913            -81.490    20928.645941
                  14 Sep 2022 12:43:24.000          354.957            -81.506    20924.029020
                  14 Sep 2022 12:43:34.000          355.001            -81.521    20919.422058
                  14 Sep 2022 12:43:44.000          355.045            -81.537    20914.825068
                  14 Sep 2022 12:43:54.000          355.089            -81.552    20910.238059
                  14 Sep 2022 12:44:04.000          355.133            -81.568    20905.661043
                  14 Sep 2022 12:44:14.000          355.178            -81.583    20901.094029
                  14 Sep 2022 12:44:24.000          355.223            -81.599    20896.537030
                  14 Sep 2022 12:44:34.000          355.267            -81.614    20891.990054
                  14 Sep 2022 12:44:44.000          355.312            -81.630    20887.453114
                  14 Sep 2022 12:44:54.000          355.358            -81.646    20882.926218
                  14 Sep 2022 12:45:04.000          355.403            -81.661    20878.409379
                  14 Sep 2022 12:45:14.000          355.448            -81.677    20873.902605
                  14 Sep 2022 12:45:24.000          355.494            -81.692    20869.405909
                  14 Sep 2022 12:45:34.000          355.540            -81.708    20864.919298
                  14 Sep 2022 12:45:44.000          355.586            -81.724    20860.442786
                  14 Sep 2022 12:45:54.000          355.632            -81.739    20855.976380
                  14 Sep 2022 12:46:04.000          355.678            -81.755    20851.520092
                  14 Sep 2022 12:46:14.000          355.725            -81.771    20847.073932
                  14 Sep 2022 12:46:24.000          355.772            -81.787    20842.637909
                  14 Sep 2022 12:46:34.000          355.819            -81.802    20838.212035
                  14 Sep 2022 12:46:44.000          355.866            -81.818    20833.796318
                  14 Sep 2022 12:46:54.000          355.913            -81.834    20829.390770
                  14 Sep 2022 12:47:04.000          355.960            -81.850    20824.995399
                  14 Sep 2022 12:47:14.000          356.008            -81.865    20820.610217
                  14 Sep 2022 12:47:24.000          356.056            -81.881    20816.235232
                  14 Sep 2022 12:47:34.000          356.103            -81.897    20811.870454
                  14 Sep 2022 12:47:44.000          356.152            -81.913    20807.515894
                  14 Sep 2022 12:47:54.000          356.200            -81.929    20803.171561
                  14 Sep 2022 12:48:04.000          356.248            -81.945    20798.837465
                  14 Sep 2022 12:48:14.000          356.297            -81.960    20794.513616
                  14 Sep 2022 12:48:24.000          356.346            -81.976    20790.200022
                  14 Sep 2022 12:48:34.000          356.395            -81.992    20785.896694
                  14 Sep 2022 12:48:44.000          356.444            -82.008    20781.603642
                  14 Sep 2022 12:48:54.000          356.494            -82.024    20777.320874
                  14 Sep 2022 12:49:04.000          356.543            -82.040    20773.048400
                  14 Sep 2022 12:49:14.000          356.593            -82.056    20768.786229
                  14 Sep 2022 12:49:24.000          356.643            -82.072    20764.534372
                  14 Sep 2022 12:49:34.000          356.693            -82.088    20760.292837
                  14 Sep 2022 12:49:44.000          356.744            -82.104    20756.061633
                  14 Sep 2022 12:49:54.000          356.794            -82.120    20751.840770
                  14 Sep 2022 12:50:04.000          356.845            -82.136    20747.630257
                  14 Sep 2022 12:50:14.000          356.896            -82.152    20743.430103
                  14 Sep 2022 12:50:24.000          356.947            -82.168    20739.240318
                  14 Sep 2022 12:50:34.000          356.999            -82.184    20735.060909
                  14 Sep 2022 12:50:44.000          357.051            -82.200    20730.891887
                  14 Sep 2022 12:50:54.000          357.102            -82.216    20726.733260
                  14 Sep 2022 12:51:04.000          357.154            -82.232    20722.585037
                  14 Sep 2022 12:51:14.000          357.207            -82.249    20718.447228
                  14 Sep 2022 12:51:24.000          357.259            -82.265    20714.319840
                  14 Sep 2022 12:51:34.000          357.312            -82.281    20710.202883
                  14 Sep 2022 12:51:44.000          357.365            -82.297    20706.096366
                  14 Sep 2022 12:51:54.000          357.418            -82.313    20702.000296
                  14 Sep 2022 12:52:04.000          357.471            -82.329    20697.914684
                  14 Sep 2022 12:52:14.000          357.525            -82.345    20693.839537
                  14 Sep 2022 12:52:24.000          357.579            -82.362    20689.774864
                  14 Sep 2022 12:52:34.000          357.633            -82.378    20685.720674
                  14 Sep 2022 12:52:44.000          357.687            -82.394    20681.676975
                  14 Sep 2022 12:52:54.000          357.741            -82.410    20677.643776
                  14 Sep 2022 12:53:04.000          357.796            -82.426    20673.621084
                  14 Sep 2022 12:53:14.000          357.851            -82.443    20669.608909
                  14 Sep 2022 12:53:24.000          357.906            -82.459    20665.607258
                  14 Sep 2022 12:53:34.000          357.962            -82.475    20661.616141
                  14 Sep 2022 12:53:44.000          358.017            -82.492    20657.635564
                  14 Sep 2022 12:53:54.000          358.073            -82.508    20653.665537
                  14 Sep 2022 12:54:04.000          358.129            -82.524    20649.706067
                  14 Sep 2022 12:54:14.000          358.186            -82.540    20645.757163
                  14 Sep 2022 12:54:24.000          358.242            -82.557    20641.818833
                  14 Sep 2022 12:54:34.000          358.299            -82.573    20637.891084
                  14 Sep 2022 12:54:44.000          358.356            -82.589    20633.973925
                  14 Sep 2022 12:54:54.000          358.414            -82.606    20630.067363
                  14 Sep 2022 12:55:04.000          358.471            -82.622    20626.171407
                  14 Sep 2022 12:55:14.000          358.529            -82.638    20622.286063
                  14 Sep 2022 12:55:24.000          358.587            -82.655    20618.411341
                  14 Sep 2022 12:55:34.000          358.646            -82.671    20614.547248
                  14 Sep 2022 12:55:44.000          358.704            -82.688    20610.693791
                  14 Sep 2022 12:55:54.000          358.763            -82.704    20606.850977
                  14 Sep 2022 12:56:04.000          358.822            -82.720    20603.018816
                  14 Sep 2022 12:56:14.000          358.882            -82.737    20599.197314
                  14 Sep 2022 12:56:24.000          358.941            -82.753    20595.386478
                  14 Sep 2022 12:56:34.000          359.001            -82.770    20591.586317
                  14 Sep 2022 12:56:44.000          359.061            -82.786    20587.796837
                  14 Sep 2022 12:56:54.000          359.122            -82.803    20584.018046
                  14 Sep 2022 12:57:04.000          359.183            -82.819    20580.249951
                  14 Sep 2022 12:57:14.000          359.244            -82.836    20576.492560
                  14 Sep 2022 12:57:24.000          359.305            -82.852    20572.745880
                  14 Sep 2022 12:57:34.000          359.367            -82.869    20569.009917
                  14 Sep 2022 12:57:44.000          359.429            -82.885    20565.284680
                  14 Sep 2022 12:57:54.000          359.491            -82.902    20561.570175
                  14 Sep 2022 12:58:04.000          359.553            -82.918    20557.866409
                  14 Sep 2022 12:58:14.000          359.616            -82.935    20554.173389
                  14 Sep 2022 12:58:24.000          359.679            -82.951    20550.491123
                  14 Sep 2022 12:58:34.000          359.742            -82.968    20546.819617
                  14 Sep 2022 12:58:44.000          359.806            -82.984    20543.158877
                  14 Sep 2022 12:58:54.000          359.870            -83.001    20539.508912
                  14 Sep 2022 12:59:04.000          359.934            -83.017    20535.869727
                  14 Sep 2022 12:59:14.000          359.998            -83.034    20532.241329
                  14 Sep 2022 12:59:24.000            0.063            -83.050    20528.623725
                  14 Sep 2022 12:59:34.000            0.128            -83.067    20525.016922
                  14 Sep 2022 12:59:44.000            0.194            -83.084    20521.420926
                  14 Sep 2022 12:59:54.000            0.260            -83.100    20517.835744
                  14 Sep 2022 13:00:04.000            0.326            -83.117    20514.261382
                  14 Sep 2022 13:00:14.000            0.392            -83.133    20510.697847
                  14 Sep 2022 13:00:24.000            0.459            -83.150    20507.145144
                  14 Sep 2022 13:00:34.000            0.526            -83.167    20503.603281
                  14 Sep 2022 13:00:44.000            0.593            -83.183    20500.072264
                  14 Sep 2022 13:00:54.000            0.661            -83.200    20496.552099
                  14 Sep 2022 13:01:04.000            0.729            -83.217    20493.042792
                  14 Sep 2022 13:01:14.000            0.797            -83.233    20489.544349
                  14 Sep 2022 13:01:24.000            0.866            -83.250    20486.056777
                  14 Sep 2022 13:01:34.000            0.935            -83.266    20482.580081
                  14 Sep 2022 13:01:44.000            1.004            -83.283    20479.114268
                  14 Sep 2022 13:01:54.000            1.074            -83.300    20475.659343
                  14 Sep 2022 13:02:04.000            1.144            -83.316    20472.215313
                  14 Sep 2022 13:02:14.000            1.214            -83.333    20468.782183
                  14 Sep 2022 13:02:24.000            1.285            -83.350    20465.359959
                  14 Sep 2022 13:02:34.000            1.356            -83.366    20461.948647
                  14 Sep 2022 13:02:44.000            1.427            -83.383    20458.548253
                  14 Sep 2022 13:02:54.000            1.499            -83.400    20455.158782
                  14 Sep 2022 13:03:04.000            1.571            -83.417    20451.780241
                  14 Sep 2022 13:03:14.000            1.643            -83.433    20448.412633
                  14 Sep 2022 13:03:24.000            1.716            -83.450    20445.055966
                  14 Sep 2022 13:03:34.000            1.790            -83.467    20441.710245
                  14 Sep 2022 13:03:44.000            1.863            -83.483    20438.375475
                  14 Sep 2022 13:03:54.000            1.937            -83.500    20435.051661
                  14 Sep 2022 13:04:04.000            2.012            -83.517    20431.738809
                  14 Sep 2022 13:04:14.000            2.086            -83.533    20428.436924
                  14 Sep 2022 13:04:24.000            2.161            -83.550    20425.146012
                  14 Sep 2022 13:04:34.000            2.237            -83.567    20421.866077
                  14 Sep 2022 13:04:44.000            2.313            -83.584    20418.597126
                  14 Sep 2022 13:04:54.000            2.389            -83.600    20415.339162
                  14 Sep 2022 13:05:04.000            2.466            -83.617    20412.092191
                  14 Sep 2022 13:05:14.000            2.543            -83.634    20408.856218
                  14 Sep 2022 13:05:24.000            2.620            -83.651    20405.631248
                  14 Sep 2022 13:05:34.000            2.698            -83.667    20402.417286
                  14 Sep 2022 13:05:44.000            2.777            -83.684    20399.214337
                  14 Sep 2022 13:05:54.000            2.855            -83.701    20396.022405
                  14 Sep 2022 13:06:04.000            2.934            -83.718    20392.841496
                  14 Sep 2022 13:06:14.000            3.014            -83.734    20389.671614
                  14 Sep 2022 13:06:24.000            3.094            -83.751    20386.512764
                  14 Sep 2022 13:06:34.000            3.174            -83.768    20383.364951
                  14 Sep 2022 13:06:44.000            3.255            -83.785    20380.228178
                  14 Sep 2022 13:06:54.000            3.336            -83.801    20377.102451
                  14 Sep 2022 13:07:04.000            3.418            -83.818    20373.987774
                  14 Sep 2022 13:07:14.000            3.500            -83.835    20370.884152
                  14 Sep 2022 13:07:24.000            3.583            -83.852    20367.791588
                  14 Sep 2022 13:07:34.000            3.666            -83.868    20364.710088
                  14 Sep 2022 13:07:44.000            3.749            -83.885    20361.639656
                  14 Sep 2022 13:07:54.000            3.833            -83.902    20358.580295
                  14 Sep 2022 13:08:04.000            3.918            -83.919    20355.532010
                  14 Sep 2022 13:08:14.000            4.003            -83.935    20352.494805
                  14 Sep 2022 13:08:24.000            4.088            -83.952    20349.468685
                  14 Sep 2022 13:08:34.000            4.174            -83.969    20346.453653
                  14 Sep 2022 13:08:44.000            4.260            -83.986    20343.449713
                  14 Sep 2022 13:08:54.000            4.347            -84.002    20340.456870
                  14 Sep 2022 13:09:04.000            4.434            -84.019    20337.475127
                  14 Sep 2022 13:09:14.000            4.522            -84.036    20334.504488
                  14 Sep 2022 13:09:24.000            4.610            -84.053    20331.544957
                  14 Sep 2022 13:09:34.000            4.699            -84.069    20328.596537
                  14 Sep 2022 13:09:44.000            4.788            -84.086    20325.659233
                  14 Sep 2022 13:09:54.000            4.877            -84.103    20322.733048
                  14 Sep 2022 13:10:04.000            4.968            -84.120    20319.817985
                  14 Sep 2022 13:10:14.000            5.058            -84.136    20316.914049
                  14 Sep 2022 13:10:24.000            5.150            -84.153    20314.021242
                  14 Sep 2022 13:10:34.000            5.241            -84.170    20311.139569
                  14 Sep 2022 13:10:44.000            5.334            -84.187    20308.269032
                  14 Sep 2022 13:10:54.000            5.426            -84.203    20305.409636
                  14 Sep 2022 13:11:04.000            5.520            -84.220    20302.561382
                  14 Sep 2022 13:11:14.000            5.614            -84.237    20299.724276
                  14 Sep 2022 13:11:24.000            5.708            -84.253    20296.898319
                  14 Sep 2022 13:11:34.000            5.803            -84.270    20294.083515
                  14 Sep 2022 13:11:44.000            5.899            -84.287    20291.279867
                  14 Sep 2022 13:11:54.000            5.995            -84.303    20288.487378
                  14 Sep 2022 13:12:04.000            6.091            -84.320    20285.706052
                  14 Sep 2022 13:12:14.000            6.188            -84.337    20282.935891
                  14 Sep 2022 13:12:24.000            6.286            -84.354    20280.176898
                  14 Sep 2022 13:12:34.000            6.385            -84.370    20277.429076
                  14 Sep 2022 13:12:44.000            6.483            -84.387    20274.692428
                  14 Sep 2022 13:12:54.000            6.583            -84.404    20271.966956
                  14 Sep 2022 13:13:04.000            6.683            -84.420    20269.252664
                  14 Sep 2022 13:13:14.000            6.784            -84.437    20266.549555
                  14 Sep 2022 13:13:24.000            6.885            -84.454    20263.857629
                  14 Sep 2022 13:13:34.000            6.987            -84.470    20261.176892
                  14 Sep 2022 13:13:44.000            7.089            -84.487    20258.507344
                  14 Sep 2022 13:13:54.000            7.192            -84.503    20255.848988
                  14 Sep 2022 13:14:04.000            7.296            -84.520    20253.201827
                  14 Sep 2022 13:14:14.000            7.401            -84.537    20250.565863
                  14 Sep 2022 13:14:24.000            7.506            -84.553    20247.941099
                  14 Sep 2022 13:14:34.000            7.611            -84.570    20245.327537
                  14 Sep 2022 13:14:44.000            7.717            -84.587    20242.725179
                  14 Sep 2022 13:14:54.000            7.824            -84.603    20240.134027
                  14 Sep 2022 13:15:04.000            7.932            -84.620    20237.554084
                  14 Sep 2022 13:15:14.000            8.040            -84.636    20234.985351
                  14 Sep 2022 13:15:24.000            8.149            -84.653    20232.427830
                  14 Sep 2022 13:15:34.000            8.259            -84.669    20229.881525
                  14 Sep 2022 13:15:44.000            8.369            -84.686    20227.346435
                  14 Sep 2022 13:15:54.000            8.480            -84.702    20224.822564
                  14 Sep 2022 13:16:04.000            8.591            -84.719    20222.309914
                  14 Sep 2022 13:16:14.000            8.704            -84.735    20219.808485
                  14 Sep 2022 13:16:24.000            8.817            -84.752    20217.318281
                  14 Sep 2022 13:16:34.000            8.930            -84.768    20214.839302
                  14 Sep 2022 13:16:44.000            9.045            -84.785    20212.371550
                  14 Sep 2022 13:16:54.000            9.160            -84.801    20209.915027
                  14 Sep 2022 13:17:04.000            9.276            -84.818    20207.469734
                  14 Sep 2022 13:17:14.000            9.392            -84.834    20205.035673
                  14 Sep 2022 13:17:24.000            9.510            -84.851    20202.612846
                  14 Sep 2022 13:17:34.000            9.628            -84.867    20200.201253
                  14 Sep 2022 13:17:44.000            9.747            -84.884    20197.800897
                  14 Sep 2022 13:17:54.000            9.866            -84.900    20195.411778
                  14 Sep 2022 13:18:04.000            9.987            -84.916    20193.033897
                  14 Sep 2022 13:18:14.000           10.108            -84.933    20190.667257
