src/main/resources/SingleSat/PRN16M.txt

                                                                          20 Feb 2023 13:52:07
Civil Air Patrol Use Only
Satellite-gps-svn56-To-Facility-Xian:  Inview Azimuth, Elevation, & Range


gps-svn56-To-Xian - AER reported in the object's default AER frame
------------------------------------------------------------------
                         Time (UTCG)          Azimuth (deg)    Elevation (deg)     Range (km) 
                  ------------------------    -------------    ---------------    ------------
                  14 Sep 2022 11:34:04.296          343.182            -76.914    23534.694524
                  14 Sep 2022 11:35:04.000          343.314            -76.950    23490.200939
                  14 Sep 2022 11:36:04.000          343.447            -76.988    23445.605362
                  14 Sep 2022 11:37:04.000          343.580            -77.026    23401.132481
                  14 Sep 2022 11:38:04.000          343.713            -77.065    23356.786384
                  14 Sep 2022 11:39:04.000          343.846            -77.106    23312.571159
                  14 Sep 2022 11:40:04.000          343.980            -77.147    23268.490891
                  14 Sep 2022 11:41:04.000          344.114            -77.189    23224.549662
                  14 Sep 2022 11:42:04.000          344.249            -77.231    23180.751548
                  14 Sep 2022 11:43:04.000          344.383            -77.275    23137.100622
                  14 Sep 2022 11:44:04.000          344.518            -77.320    23093.600951
                  14 Sep 2022 11:45:04.000          344.654            -77.365    23050.256597
                  14 Sep 2022 11:46:04.000          344.790            -77.412    23007.071616
                  14 Sep 2022 11:47:04.000          344.926            -77.459    22964.050054
                  14 Sep 2022 11:48:04.000          345.063            -77.507    22921.195950
                  14 Sep 2022 11:49:04.000          345.201            -77.556    22878.513338
                  14 Sep 2022 11:50:04.000          345.339            -77.606    22836.006237
                  14 Sep 2022 11:51:04.000          345.478            -77.657    22793.678661
                  14 Sep 2022 11:52:04.000          345.617            -77.709    22751.534609
                  14 Sep 2022 11:53:04.000          345.757            -77.762    22709.578073
                  14 Sep 2022 11:54:04.000          345.898            -77.815    22667.813030
                  14 Sep 2022 11:55:04.000          346.040            -77.870    22626.243445
                  14 Sep 2022 11:56:04.000          346.182            -77.925    22584.873269
                  14 Sep 2022 11:57:04.000          346.325            -77.982    22543.706440
                  14 Sep 2022 11:58:04.000          346.469            -78.039    22502.746879
                  14 Sep 2022 11:59:04.000          346.614            -78.097    22461.998492
                  14 Sep 2022 12:00:04.000          346.760            -78.156    22421.465171
                  14 Sep 2022 12:01:04.000          346.907            -78.216    22381.150787
                  14 Sep 2022 12:02:04.000          347.055            -78.277    22341.059194
                  14 Sep 2022 12:03:04.000          347.204            -78.338    22301.194229
                  14 Sep 2022 12:04:04.000          347.354            -78.401    22261.559707
                  14 Sep 2022 12:05:04.000          347.506            -78.464    22222.159424
                  14 Sep 2022 12:06:04.000          347.659            -78.528    22182.997155
                  14 Sep 2022 12:07:04.000          347.813            -78.594    22144.076652
                  14 Sep 2022 12:08:04.000          347.968            -78.660    22105.401645
                  14 Sep 2022 12:09:04.000          348.125            -78.727    22066.975841
                  14 Sep 2022 12:10:04.000          348.283            -78.794    22028.802920
                  14 Sep 2022 12:11:04.000          348.443            -78.863    21990.886540
                  14 Sep 2022 12:12:04.000          348.604            -78.933    21953.230332
                  14 Sep 2022 12:13:04.000          348.767            -79.003    21915.837900
                  14 Sep 2022 12:14:04.000          348.932            -79.074    21878.712819
                  14 Sep 2022 12:15:04.000          349.099            -79.146    21841.858638
                  14 Sep 2022 12:16:04.000          349.267            -79.219    21805.278875
                  14 Sep 2022 12:17:04.000          349.438            -79.293    21768.977020
                  14 Sep 2022 12:18:04.000          349.610            -79.367    21732.956530
                  14 Sep 2022 12:19:04.000          349.785            -79.442    21697.220830
                  14 Sep 2022 12:20:04.000          349.961            -79.519    21661.773315
                  14 Sep 2022 12:21:04.000          350.140            -79.596    21626.617345
                  14 Sep 2022 12:22:04.000          350.322            -79.673    21591.756246
                  14 Sep 2022 12:23:04.000          350.506            -79.752    21557.193308
                  14 Sep 2022 12:24:04.000          350.692            -79.831    21522.931788
                  14 Sep 2022 12:25:04.000          350.881            -79.911    21488.974903
                  14 Sep 2022 12:26:04.000          351.072            -79.992    21455.325836
                  14 Sep 2022 12:27:04.000          351.267            -80.074    21421.987728
                  14 Sep 2022 12:28:04.000          351.464            -80.156    21388.963685
                  14 Sep 2022 12:29:04.000          351.665            -80.239    21356.256770
                  14 Sep 2022 12:30:04.000          351.869            -80.323    21323.870006
                  14 Sep 2022 12:31:04.000          352.075            -80.408    21291.806376
                  14 Sep 2022 12:32:04.000          352.286            -80.493    21260.068820
                  14 Sep 2022 12:33:04.000          352.500            -80.579    21228.660235
                  14 Sep 2022 12:34:04.000          352.718            -80.666    21197.583473
                  14 Sep 2022 12:35:04.000          352.939            -80.753    21166.841344
                  14 Sep 2022 12:36:04.000          353.165            -80.841    21136.436610
                  14 Sep 2022 12:37:04.000          353.394            -80.930    21106.371988
                  14 Sep 2022 12:38:04.000          353.628            -81.019    21076.650150
                  14 Sep 2022 12:39:04.000          353.867            -81.109    21047.273719
                  14 Sep 2022 12:40:04.000          354.110            -81.199    21018.245268
                  14 Sep 2022 12:41:04.000          354.358            -81.291    20989.567324
                  14 Sep 2022 12:42:04.000          354.611            -81.382    20961.242362
                  14 Sep 2022 12:43:04.000          354.870            -81.475    20933.272809
                  14 Sep 2022 12:44:04.000          355.133            -81.568    20905.661039
                  14 Sep 2022 12:45:04.000          355.403            -81.661    20878.409375
                  14 Sep 2022 12:46:04.000          355.678            -81.755    20851.520088
                  14 Sep 2022 12:47:04.000          355.960            -81.850    20824.995396
                  14 Sep 2022 12:48:04.000          356.248            -81.945    20798.837462
                  14 Sep 2022 12:49:04.000          356.543            -82.040    20773.048396
                  14 Sep 2022 12:50:04.000          356.845            -82.136    20747.630253
                  14 Sep 2022 12:51:04.000          357.154            -82.232    20722.585034
                  14 Sep 2022 12:52:04.000          357.471            -82.329    20697.914680
                  14 Sep 2022 12:53:04.000          357.796            -82.426    20673.621080
                  14 Sep 2022 12:54:04.000          358.129            -82.524    20649.706064
                  14 Sep 2022 12:55:04.000          358.471            -82.622    20626.171403
                  14 Sep 2022 12:56:04.000          358.822            -82.720    20603.018812
                  14 Sep 2022 12:57:04.000          359.183            -82.819    20580.249947
                  14 Sep 2022 12:58:04.000          359.553            -82.918    20557.866405
                  14 Sep 2022 12:59:04.000          359.934            -83.017    20535.869723
                  14 Sep 2022 13:00:04.000            0.326            -83.117    20514.261378
                  14 Sep 2022 13:01:04.000            0.729            -83.217    20493.042788
                  14 Sep 2022 13:02:04.000            1.144            -83.316    20472.215309
                  14 Sep 2022 13:03:04.000            1.571            -83.417    20451.780236
                  14 Sep 2022 13:04:04.000            2.012            -83.517    20431.738805
                  14 Sep 2022 13:05:04.000            2.466            -83.617    20412.092186
                  14 Sep 2022 13:06:04.000            2.934            -83.718    20392.841492
                  14 Sep 2022 13:07:04.000            3.418            -83.818    20373.987770
                  14 Sep 2022 13:08:04.000            3.918            -83.919    20355.532005
                  14 Sep 2022 13:09:04.000            4.434            -84.019    20337.475122
                  14 Sep 2022 13:10:04.000            4.968            -84.120    20319.817981
                  14 Sep 2022 13:11:04.000            5.520            -84.220    20302.561378
                  14 Sep 2022 13:12:04.000            6.091            -84.320    20285.706047
                  14 Sep 2022 13:13:04.000            6.683            -84.420    20269.252660
                  14 Sep 2022 13:14:04.000            7.296            -84.520    20253.201822
                  14 Sep 2022 13:15:04.000            7.932            -84.620    20237.554079
                  14 Sep 2022 13:16:04.000            8.591            -84.719    20222.309909
                  14 Sep 2022 13:17:04.000            9.276            -84.818    20207.469729
                  14 Sep 2022 13:18:04.000            9.987            -84.916    20193.033898
                  14 Sep 2022 13:19:04.000           10.725            -85.014    20179.002693
                  14 Sep 2022 13:20:04.000           11.493            -85.112    20165.376344
                  14 Sep 2022 13:21:04.000           12.291            -85.209    20152.155015
                  14 Sep 2022 13:22:04.000           13.122            -85.305    20139.338804
                  14 Sep 2022 13:23:04.000           13.988            -85.401    20126.927746
                  14 Sep 2022 13:24:04.000           14.889            -85.495    20114.921813
                  14 Sep 2022 13:25:04.000           15.828            -85.589    20103.320914
                  14 Sep 2022 13:26:04.000           16.808            -85.682    20092.124895
                  14 Sep 2022 13:27:04.000           17.830            -85.774    20081.333541
                  14 Sep 2022 13:28:04.000           18.896            -85.864    20070.946573
                  14 Sep 2022 13:29:04.000           20.008            -85.953    20060.963649
                  14 Sep 2022 13:30:04.000           21.170            -86.041    20051.384368
                  14 Sep 2022 13:31:04.000           22.383            -86.128    20042.208267
                  14 Sep 2022 13:32:04.000           23.650            -86.212    20033.434819
                  14 Sep 2022 13:33:04.000           24.974            -86.295    20025.063439
                  14 Sep 2022 13:34:04.000           26.356            -86.377    20017.093482
                  14 Sep 2022 13:35:04.000           27.800            -86.456    20009.524242
                  14 Sep 2022 13:36:04.000           29.307            -86.533    20002.354953
                  14 Sep 2022 13:37:04.000           30.881            -86.607    19995.584790
                  14 Sep 2022 13:38:04.000           32.522            -86.679    19989.212872
                  14 Sep 2022 13:39:04.000           34.232            -86.748    19983.238256
                  14 Sep 2022 13:40:04.000           36.014            -86.815    19977.659946
                  14 Sep 2022 13:41:04.000           37.868            -86.878    19972.476884
                  14 Sep 2022 13:42:04.000           39.794            -86.938    19967.687960
                  14 Sep 2022 13:43:04.000           41.793            -86.995    19963.292006
                  14 Sep 2022 13:44:04.000           43.863            -87.048    19959.287800
                  14 Sep 2022 13:45:04.000           46.003            -87.097    19955.674063
                  14 Sep 2022 13:46:04.000           48.211            -87.142    19952.449466
                  14 Sep 2022 13:47:04.000           50.482            -87.182    19949.612624
                  14 Sep 2022 13:48:04.000           52.813            -87.218    19947.162100
                  14 Sep 2022 13:49:04.000           55.198            -87.250    19945.096406
                  14 Sep 2022 13:50:04.000           57.631            -87.277    19943.414002
                  14 Sep 2022 13:51:04.000           60.103            -87.299    19942.113298
                  14 Sep 2022 13:52:04.000           62.607            -87.316    19941.192655
                  14 Sep 2022 13:53:04.000           65.135            -87.328    19940.650384
                  14 Sep 2022 13:54:04.000           67.675            -87.334    19940.484750
                  14 Sep 2022 13:55:04.000           70.219            -87.336    19940.693968
                  14 Sep 2022 13:56:04.000           72.757            -87.333    19941.276210
                  14 Sep 2022 13:57:04.000           75.278            -87.324    19942.229599
                  14 Sep 2022 13:58:04.000           77.774            -87.311    19943.552217
                  14 Sep 2022 13:59:04.000           80.236            -87.292    19945.242099
                  14 Sep 2022 14:00:04.000           82.655            -87.269    19947.297239
                  14 Sep 2022 14:01:04.000           85.025            -87.242    19949.715588
                  14 Sep 2022 14:02:04.000           87.339            -87.210    19952.495056
                  14 Sep 2022 14:03:04.000           89.593            -87.173    19955.633513
                  14 Sep 2022 14:04:04.000           91.780            -87.133    19959.128790
                  14 Sep 2022 14:05:04.000           93.900            -87.089    19962.978680
                  14 Sep 2022 14:06:04.000           95.948            -87.041    19967.180937
                  14 Sep 2022 14:07:04.000           97.925            -86.990    19971.733279
                  14 Sep 2022 14:08:04.000           99.829            -86.936    19976.633389
                  14 Sep 2022 14:09:04.000          101.659            -86.878    19981.878916
                  14 Sep 2022 14:10:04.000          103.418            -86.818    19987.467474
                  14 Sep 2022 14:11:04.000          105.106            -86.756    19993.396645
                  14 Sep 2022 14:12:04.000          106.724            -86.691    19999.663980
                  14 Sep 2022 14:13:04.000          108.274            -86.623    20006.266997
                  14 Sep 2022 14:14:04.000          109.759            -86.554    20013.203186
                  14 Sep 2022 14:15:04.000          111.181            -86.483    20020.470009
                  14 Sep 2022 14:16:04.000          112.541            -86.410    20028.064899
                  14 Sep 2022 14:17:04.000          113.843            -86.336    20035.985262
                  14 Sep 2022 14:18:04.000          115.089            -86.260    20044.228479
                  14 Sep 2022 14:19:04.000          116.281            -86.183    20052.791905
                  14 Sep 2022 14:20:04.000          117.422            -86.105    20061.672874
                  14 Sep 2022 14:21:04.000          118.514            -86.026    20070.868694
                  14 Sep 2022 14:22:04.000          119.560            -85.945    20080.376653
                  14 Sep 2022 14:23:04.000          120.562            -85.864    20090.194017
                  14 Sep 2022 14:24:04.000          121.521            -85.782    20100.318033
                  14 Sep 2022 14:25:04.000          122.441            -85.700    20110.745928
                  14 Sep 2022 14:26:04.000          123.323            -85.616    20121.474914
                  14 Sep 2022 14:27:04.000          124.169            -85.533    20132.502182
                  14 Sep 2022 14:28:04.000          124.981            -85.448    20143.824910
                  14 Sep 2022 14:29:04.000          125.760            -85.364    20155.440261
                  14 Sep 2022 14:30:04.000          126.509            -85.279    20167.345380
                  14 Sep 2022 14:31:04.000          127.229            -85.194    20179.537405
                  14 Sep 2022 14:32:04.000          127.921            -85.108    20192.013458
                  14 Sep 2022 14:33:04.000          128.586            -85.023    20204.770650
                  14 Sep 2022 14:34:04.000          129.227            -84.937    20217.806082
                  14 Sep 2022 14:35:04.000          129.844            -84.851    20231.116847
                  14 Sep 2022 14:36:04.000          130.438            -84.766    20244.700029
                  14 Sep 2022 14:37:04.000          131.011            -84.680    20258.552703
                  14 Sep 2022 14:38:04.000          131.563            -84.594    20272.671939
                  14 Sep 2022 14:39:04.000          132.096            -84.508    20287.054802
                  14 Sep 2022 14:40:04.000          132.611            -84.423    20301.698349
                  14 Sep 2022 14:41:04.000          133.108            -84.337    20316.599637
                  14 Sep 2022 14:42:04.000          133.588            -84.252    20331.755717
                  14 Sep 2022 14:43:04.000          134.052            -84.167    20347.163639
                  14 Sep 2022 14:44:04.000          134.501            -84.082    20362.820450
                  14 Sep 2022 14:45:04.000          134.936            -83.997    20378.723202
                  14 Sep 2022 14:46:04.000          135.356            -83.913    20394.868941
                  14 Sep 2022 14:47:04.000          135.764            -83.829    20411.254716
                  14 Sep 2022 14:48:04.000          136.158            -83.745    20427.877580
                  14 Sep 2022 14:49:04.000          136.541            -83.661    20444.734586
                  14 Sep 2022 14:50:04.000          136.912            -83.578    20461.822792
                  14 Sep 2022 14:51:04.000          137.272            -83.495    20479.139259
                  14 Sep 2022 14:52:04.000          137.621            -83.412    20496.681055
                  14 Sep 2022 14:53:04.000          137.960            -83.330    20514.445252
                  14 Sep 2022 14:54:04.000          138.289            -83.248    20532.428930
                  14 Sep 2022 14:55:04.000          138.610            -83.167    20550.629174
                  14 Sep 2022 14:56:04.000          138.921            -83.086    20569.043080
                  14 Sep 2022 14:57:04.000          139.223            -83.006    20587.667751
                  14 Sep 2022 14:58:04.000          139.518            -82.925    20606.500297
                  14 Sep 2022 14:59:04.000          139.804            -82.846    20625.537843
                  14 Sep 2022 15:00:04.000          140.083            -82.767    20644.777520
                  14 Sep 2022 15:01:04.000          140.355            -82.688    20664.216473
                  14 Sep 2022 15:02:04.000          140.620            -82.610    20683.851857
                  14 Sep 2022 15:03:04.000          140.877            -82.532    20703.680842
                  14 Sep 2022 15:04:04.000          141.129            -82.454    20723.700609
                  14 Sep 2022 15:05:04.000          141.374            -82.378    20743.908354
                  14 Sep 2022 15:06:04.000          141.614            -82.301    20764.301286
                  14 Sep 2022 15:07:04.000          141.847            -82.225    20784.876629
                  14 Sep 2022 15:08:04.000          142.075            -82.150    20805.631624
                  14 Sep 2022 15:09:04.000          142.298            -82.075    20826.563526
                  14 Sep 2022 15:10:04.000          142.515            -82.001    20847.669607
                  14 Sep 2022 15:11:04.000          142.728            -81.927    20868.947158
                  14 Sep 2022 15:12:04.000          142.935            -81.854    20890.393483
                  14 Sep 2022 15:13:04.000          143.139            -81.781    20912.005909
                  14 Sep 2022 15:14:04.000          143.337            -81.709    20933.781777
                  14 Sep 2022 15:15:04.000          143.532            -81.638    20955.718450
                  14 Sep 2022 15:16:04.000          143.722            -81.567    20977.813308
                  14 Sep 2022 15:17:04.000          143.908            -81.496    21000.063753
                  14 Sep 2022 15:18:04.000          144.090            -81.426    21022.467205
                  14 Sep 2022 15:19:04.000          144.269            -81.357    21045.021106
                  14 Sep 2022 15:20:04.000          144.444            -81.288    21067.722919
                  14 Sep 2022 15:21:04.000          144.616            -81.220    21090.570125
                  14 Sep 2022 15:22:04.000          144.784            -81.152    21113.560233
                  14 Sep 2022 15:23:04.000          144.949            -81.085    21136.690767
                  14 Sep 2022 15:24:04.000          145.110            -81.018    21159.959278
                  14 Sep 2022 15:25:04.000          145.269            -80.952    21183.363338
                  14 Sep 2022 15:26:04.000          145.425            -80.886    21206.900543
                  14 Sep 2022 15:27:04.000          145.578            -80.821    21230.568511
                  14 Sep 2022 15:28:04.000          145.728            -80.757    21254.364883
                  14 Sep 2022 15:29:04.000          145.875            -80.693    21278.287326
                  14 Sep 2022 15:30:04.000          146.020            -80.630    21302.333530
                  14 Sep 2022 15:31:04.000          146.162            -80.567    21326.501209
                  14 Sep 2022 15:32:04.000          146.302            -80.505    21350.788102
                  14 Sep 2022 15:33:04.000          146.440            -80.444    21375.191973
                  14 Sep 2022 15:34:04.000          146.575            -80.383    21399.710610
                  14 Sep 2022 15:35:04.000          146.708            -80.322    21424.341826
                  14 Sep 2022 15:36:04.000          146.839            -80.262    21449.083463
                  14 Sep 2022 15:37:04.000          146.968            -80.203    21473.933383
                  14 Sep 2022 15:38:04.000          147.095            -80.144    21498.889478
                  14 Sep 2022 15:39:04.000          147.220            -80.086    21523.949665
                  14 Sep 2022 15:40:04.000          147.343            -80.028    21549.111886
                  14 Sep 2022 15:41:04.000          147.464            -79.971    21574.374110
                  14 Sep 2022 15:42:04.000          147.583            -79.914    21599.734332
                  14 Sep 2022 15:43:04.000          147.701            -79.858    21625.190573
                  14 Sep 2022 15:44:04.000          147.817            -79.803    21650.740883
                  14 Sep 2022 15:45:04.000          147.932            -79.748    21676.383334
                  14 Sep 2022 15:46:04.000          148.044            -79.694    21702.116030
                  14 Sep 2022 15:47:04.000          148.156            -79.640    21727.937098
                  14 Sep 2022 15:48:04.000          148.266            -79.586    21753.844693
                  14 Sep 2022 15:49:04.000          148.374            -79.534    21779.836998
                  14 Sep 2022 15:50:04.000          148.481            -79.481    21805.912221
                  14 Sep 2022 15:51:04.000          148.587            -79.430    21832.068599
                  14 Sep 2022 15:52:04.000          148.691            -79.378    21858.304394
                  14 Sep 2022 15:53:04.000          148.795            -79.328    21884.617897
                  14 Sep 2022 15:54:04.000          148.896            -79.278    21911.007424
                  14 Sep 2022 15:55:04.000          148.997            -79.228    21937.471321
                  14 Sep 2022 15:56:04.000          149.097            -79.179    21964.007958
                  14 Sep 2022 15:57:04.000          149.195            -79.131    21990.615733
                  14 Sep 2022 15:58:04.000          149.293            -79.083    22017.293073
                  14 Sep 2022 15:59:04.000          149.389            -79.035    22044.038429
                  14 Sep 2022 16:00:04.000          149.484            -78.988    22070.850280
                  14 Sep 2022 16:01:04.000          149.579            -78.942    22097.727133
                  14 Sep 2022 16:02:04.000          149.672            -78.896    22124.667520
                  14 Sep 2022 16:03:04.000          149.765            -78.850    22151.670002
                  14 Sep 2022 16:04:04.000          149.856            -78.805    22178.733164
                  14 Sep 2022 16:05:04.000          149.947            -78.761    22205.855621
                  14 Sep 2022 16:06:04.000          150.037            -78.717    22233.036011
                  14 Sep 2022 16:07:04.000          150.126            -78.673    22260.273000
                  14 Sep 2022 16:08:04.000          150.214            -78.630    22287.565282
                  14 Sep 2022 16:09:04.000          150.301            -78.588    22314.911574
                  14 Sep 2022 16:10:04.000          150.388            -78.546    22342.310621
                  14 Sep 2022 16:11:04.000          150.474            -78.504    22369.761194
                  14 Sep 2022 16:12:04.000          150.560            -78.463    22397.262090
                  14 Sep 2022 16:13:04.000          150.644            -78.423    22424.812132
                  14 Sep 2022 16:14:04.000          150.728            -78.382    22452.410166
                  14 Sep 2022 16:15:04.000          150.812            -78.343    22480.055067
                  14 Sep 2022 16:16:04.000          150.895            -78.304    22507.745734
                  14 Sep 2022 16:17:04.000          150.977            -78.265    22535.481089
                  14 Sep 2022 16:18:04.000          151.058            -78.227    22563.260084
                  14 Sep 2022 16:19:04.000          151.139            -78.189    22591.081690
                  14 Sep 2022 16:20:04.000          151.220            -78.152    22618.944907
                  14 Sep 2022 16:21:04.000          151.300            -78.115    22646.848757
                  14 Sep 2022 16:22:04.000          151.380            -78.078    22674.792289
                  14 Sep 2022 16:23:04.000          151.459            -78.042    22702.774572
                  14 Sep 2022 16:24:04.000          151.537            -78.007    22730.794703
                  14 Sep 2022 16:25:04.000          151.616            -77.972    22758.851800
                  14 Sep 2022 16:26:04.000          151.693            -77.937    22786.945006
                  14 Sep 2022 16:27:04.000          151.771            -77.903    22815.073487
                  14 Sep 2022 16:28:04.000          151.848            -77.869    22843.236431
                  14 Sep 2022 16:29:04.000          151.924            -77.836    22871.433051
                  14 Sep 2022 16:30:04.000          152.001            -77.803    22899.662580
                  14 Sep 2022 16:31:04.000          152.076            -77.770    22927.924277
                  14 Sep 2022 16:32:04.000          152.152            -77.738    22956.217419
                  14 Sep 2022 16:33:04.000          152.227            -77.706    22984.541308
                  14 Sep 2022 16:34:04.000          152.302            -77.675    23012.895268
                  14 Sep 2022 16:35:04.000          152.377            -77.644    23041.278641
                  14 Sep 2022 16:36:04.000          152.451            -77.614    23069.690795
                  14 Sep 2022 16:37:04.000          152.525            -77.584    23098.131115
                  14 Sep 2022 16:38:04.000          152.599            -77.554    23126.599009
                  14 Sep 2022 16:39:04.000          152.673            -77.525    23155.093905
                  14 Sep 2022 16:40:04.000          152.746            -77.496    23183.615250
                  14 Sep 2022 16:41:04.000          152.819            -77.467    23212.162514
                  14 Sep 2022 16:42:04.000          152.892            -77.439    23240.735184
                  14 Sep 2022 16:43:04.000          152.965            -77.412    23269.332768
                  14 Sep 2022 16:44:04.000          153.037            -77.384    23297.954792
                  14 Sep 2022 16:45:04.000          153.110            -77.357    23326.600801
                  14 Sep 2022 16:46:04.000          153.182            -77.331    23355.270360
                  14 Sep 2022 16:47:04.000          153.254            -77.305    23383.963051
                  14 Sep 2022 16:48:04.000          153.326            -77.279    23412.678475
                  14 Sep 2022 16:49:04.000          153.398            -77.254    23441.416250
                  14 Sep 2022 16:50:04.000          153.469            -77.228    23470.176013
                  14 Sep 2022 16:51:04.000          153.541            -77.204    23498.957416
                  14 Sep 2022 16:52:04.000          153.612            -77.179    23527.760130
                  14 Sep 2022 16:53:04.000          153.683            -77.156    23556.583841
                  14 Sep 2022 16:54:04.000          153.755            -77.132    23585.428253
                  14 Sep 2022 16:55:04.000          153.826            -77.109    23614.293084
                  14 Sep 2022 16:56:04.000          153.897            -77.086    23643.178071
                  14 Sep 2022 16:57:04.000          153.968            -77.063    23672.082964
                  14 Sep 2022 16:58:04.000          154.038            -77.041    23701.007528
                  14 Sep 2022 16:59:04.000          154.109            -77.019    23729.951544
                  14 Sep 2022 17:00:04.000          154.180            -76.998    23758.914807
                  14 Sep 2022 17:00:08.776          154.186            -76.996    23761.220976

Global Statistics
-----------------
Min Elevation     14 Sep 2022 13:54:53.698           69.782            -87.336    19940.631470
Max Elevation     14 Sep 2022 11:34:04.296          343.182            -76.914    23534.694524
Mean Elevation                                                         -81.611                
Min Range         14 Sep 2022 13:54:00.512           67.527            -87.334    19940.484100
Max Range         14 Sep 2022 17:00:08.776          154.186            -76.996    23761.220968
Mean Range                                                                        21340.706555
