src/main/resources/SingleSat/PRN3M.txt



                         Time (UTCG)          Azimuth (deg)    Elevation (deg)     Range (km)
                  ------------------------    -------------    ---------------    ------------
                  14 Sep 2022 19:38:.3.010          282.693            -76.956    23637.039849
                  14 Sep 2022 19:39:22.000          282.513            -76.981    23606.850475
                  14 Sep 2022 19:40:22.000          282.328            -77.007    23576.800395
                  14 Sep 2022 19:41:22.000          282.139            -77.034    23546.899423
                  14 Sep 2022 19:42:22.000          281.944            -77.060    23517.152532
                  14 Sep 2022 19:43:22.000          281.746            -77.087    23487.564695
                  14 Sep 2022 19:44:22.000          281.542            -77.115    23458.140881
                  14 Sep 2022 19:45:22.000          281.334            -77.142    23428.886055
                  14 Sep 2022 19:46:22.000          281.121            -77.170    23399.805178
                  14 Sep 2022 19:47:22.000          280.903            -77.198    23370.903205
                  14 Sep 2022 19:48:22.000          280.680            -77.227    23342.185086
                  14 Sep 2022 19:49:22.000          280.452            -77.255    23313.655762
                  14 Sep 2022 19:50:22.000          280.220            -77.284    23285.320166
                  14 Sep 2022 19:51:22.000          279.982            -77.314    23257.183222
                  14 Sep 2022 19:52:22.000          279.739            -77.343    23229.249841
                  14 Sep 2022 19:53:22.000          279.492            -77.373    23201.524926
                  14 Sep 2022 19:54:22.000          279.239            -77.403    23174.013365
                  14 Sep 2022 19:55:22.000          278.981            -77.433    23146.720033
                  14 Sep 2022 19:56:22.000          278.718            -77.463    23119.649789
                  14 Sep 2022 19:57:22.000          278.449            -77.493    23092.807479
                  14 Sep 2022 19:58:22.000          278.176            -77.524    23066.197929
                  14 Sep 2022 19:59:22.000          277.897            -77.555    23039.825948
                  14 Sep 2022 20:00:22.000          277.613            -77.586    23013.696326
                  14 Sep 2022 20:01:22.000          277.324            -77.617    22987.813832
                  14 Sep 2022 20:02:22.000          277.029            -77.648    22962.183216
                  14 Sep 2022 20:03:22.000          276.729            -77.679    22936.809201
                  14 Sep 2022 20:04:22.000          276.423            -77.710    22911.696489
                  14 Sep 2022 20:05:22.000          276.112            -77.742    22886.849758
                  14 Sep 2022 20:06:22.000          275.795            -77.773    22862.273657
                  14 Sep 2022 20:07:22.000          275.473            -77.805    22837.972810
                  14 Sep 2022 20:08:22.000          275.146            -77.836    22813.951811
                  14 Sep 2022 20:09:22.000          274.813            -77.868    22790.215226
                  14 Sep 2022 20:10:22.000          274.474            -77.899    22766.767589
                  14 Sep 2022 20:11:22.000          274.130            -77.931    22743.613401
                  14 Sep 2022 20:12:22.000          273.780            -77.962    22720.757133
                  14 Sep 2022 20:13:22.000          273.425            -77.994    22698.203218
                  14 Sep 2022 20:14:22.000          273.064            -78.025    22675.956054
                  14 Sep 2022 20:15:22.000          272.697            -78.056    22654.020005
                  14 Sep 2022 20:16:22.000          272.325            -78.087    22632.399394
                  14 Sep 2022 20:17:22.000          271.947            -78.118    22611.098505
                  14 Sep 2022 20:18:22.000          271.563            -78.149    22590.121582
                  14 Sep 2022 20:19:22.000          271.174            -78.179    22569.472828
                  14 Sep 2022 20:20:22.000          270.779            -78.210    22549.156402
                  14 Sep 2022 20:21:22.000          270.379            -78.240    22529.176419
                  14 Sep 2022 20:22:22.000          269.973            -78.270    22509.536948
                  14 Sep 2022 20:23:22.000          269.561            -78.300    22490.242014
                  14 Sep 2022 20:24:22.000          269.144            -78.329    22471.295592
                  14 Sep 2022 20:25:22.000          268.721            -78.358    22452.701607
                  14 Sep 2022 20:26:22.000          268.292            -78.387    22434.463938
                  14 Sep 2022 20:27:22.000          267.858            -78.416    22416.586408
                  14 Sep 2022 20:28:22.000          267.418            -78.444    22399.072791
                  14 Sep 2022 20:29:22.000          266.973            -78.472    22381.926805
                  14 Sep 2022 20:30:22.000          266.523            -78.499    22365.152114
                  14 Sep 2022 20:31:22.000          266.067            -78.526    22348.752327
                  14 Sep 2022 20:32:22.000          265.605            -78.553    22332.730994
                  14 Sep 2022 20:33:22.000          265.139            -78.579    22317.091609
                  14 Sep 2022 20:34:22.000          264.667            -78.605    22301.837605
                  14 Sep 2022 20:35:22.000          264.189            -78.630    22286.972354
                  14 Sep 2022 20:36:22.000          263.707            -78.655    22272.499168
                  14 Sep 2022 20:37:22.000          263.220            -78.679    22258.421297
                  14 Sep 2022 20:38:22.000          262.727            -78.703    22244.741924
                  14 Sep 2022 20:39:22.000          262.230            -78.726    22231.464171
                  14 Sep 2022 20:40:22.000          261.727            -78.748    22218.591092
                  14 Sep 2022 20:41:22.000          261.220            -78.770    22206.125675
                  14 Sep 2022 20:42:22.000          260.708            -78.791    22194.070840
                  14 Sep 2022 20:43:22.000          260.192            -78.812    22182.429438
                  14 Sep 2022 20:44:22.000          259.671            -78.832    22171.204252
                  14 Sep 2022 20:45:22.000          259.146            -78.851    22160.397992
                  14 Sep 2022 20:46:22.000          258.616            -78.870    22150.013298
                  14 Sep 2022 20:47:22.000          258.082            -78.888    22140.052737
                  14 Sep 2022 20:48:22.000          257.544            -78.905    22130.518803
                  14 Sep 2022 20:49:22.000          257.002            -78.922    22121.413917
                  14 Sep 2022 20:50:22.000          256.456            -78.937    22112.740422
                  14 Sep 2022 20:51:22.000          255.907            -78.952    22104.500589
                  14 Sep 2022 20:52:22.000          255.354            -78.966    22096.696610
                  14 Sep 2022 20:53:22.000          254.797            -78.980    22089.330601
                  14 Sep 2022 20:54:22.000          254.237            -78.992    22082.404599
                  14 Sep 2022 20:55:22.000          253.674            -79.004    22075.920565
                  14 Sep 2022 20:56:22.000          253.108            -79.015    22069.880377
                  14 Sep 2022 20:57:22.000          252.539            -79.025    22064.285836
                  14 Sep 2022 20:58:22.000          251.967            -79.034    22059.138662
                  14 Sep 2022 20:59:22.000          251.393            -79.043    22054.440494
                  14 Sep 2022 21:00:22.000          250.816            -79.050    22050.192888
                  14 Sep 2022 21:01:22.000          250.237            -79.057    22046.397320
                  14 Sep 2022 21:02:22.000          249.656            -79.062    22043.055183
                  14 Sep 2022 21:03:22.000          249.073            -79.067    22040.167786
                  14 Sep 2022 21:04:22.000          248.488            -79.071    22037.736357
                  14 Sep 2022 21:05:22.000          247.902            -79.074    22035.762037
                  14 Sep 2022 21:06:22.000          247.314            -79.076    22034.245886
                  14 Sep 2022 21:07:22.000          246.725            -79.077    22033.188878
                  14 Sep 2022 21:08:22.000          246.135            -79.077    22032.591902
                  14 Sep 2022 21:09:22.000          245.544            -79.077    22032.455766
                  14 Sep 2022 21:10:22.000          244.952            -79.075    22032.781187
                  14 Sep 2022 21:11:22.000          244.359            -79.073    22033.568787
                  14 Sep 2022 21:12:22.000          243.767            -79.069    22034.819144
                  14 Sep 2022 21:13:22.000          243.174            -79.065    22036.532709
                  14 Sep 2022 21:14:22.000          242.581            -79.060    22038.709860
                  14 Sep 2022 21:15:22.000          241.988            -79.053    22041.350890
                  14 Sep 2022 21:16:22.000          241.396            -79.046    22044.456008
                  14 Sep 2022 21:17:22.000          240.804            -79.038    22048.025336
                  14 Sep 2022 21:18:22.000          240.213            -79.030    22052.058911
                  14 Sep 2022 21:19:22.000          239.622            -79.020    22056.556685
                  14 Sep 2022 21:20:22.000          239.033            -79.009    22061.518526
                  14 Sep 2022 21:21:22.000          238.444            -78.997    22066.944216
                  14 Sep 2022 21:22:22.000          237.857            -78.985    22072.833451
                  14 Sep 2022 21:23:22.000          237.272            -78.972    22079.185846
                  14 Sep 2022 21:24:22.000          236.688            -78.958    22086.000930
                  14 Sep 2022 21:25:22.000          236.105            -78.943    22093.278148
                  14 Sep 2022 21:26:22.000          235.525            -78.927    22101.016862
                  14 Sep 2022 21:27:22.000          234.947            -78.910    22109.216351
                  14 Sep 2022 21:28:22.000          234.371            -78.893    22117.875812
                  14 Sep 2022 21:29:22.000          233.797            -78.875    22126.994360
                  14 Sep 2022 21:30:22.000          233.226            -78.856    22136.571027
                  14 Sep 2022 21:31:22.000          232.657            -78.836    22146.604765
                  14 Sep 2022 21:32:22.000          232.091            -78.816    22157.094445
                  14 Sep 2022 21:33:22.000          231.528            -78.794    22168.038860
                  14 Sep 2022 21:34:22.000          230.968            -78.772    22179.436720
                  14 Sep 2022 21:35:22.000          230.411            -78.750    22191.286660
                  14 Sep 2022 21:36:22.000          229.857            -78.727    22203.587236
                  14 Sep 2022 21:37:22.000          229.306            -78.703    22216.336924
                  14 Sep 2022 21:38:22.000          228.759            -78.678    22229.534127
                  14 Sep 2022 21:39:22.000          228.215            -78.653    22243.177171
                  14 Sep 2022 21:40:22.000          227.675            -78.627    22257.264307
                  14 Sep 2022 21:41:22.000          227.138            -78.601    22271.793712
                  14 Sep 2022 21:42:22.000          226.605            -78.574    22286.763488
                  14 Sep 2022 21:43:22.000          226.076            -78.546    22302.171667
                  14 Sep 2022 21:44:22.000          225.550            -78.518    22318.016209
                  14 Sep 2022 21:45:22.000          225.029            -78.490    22334.295001
                  14 Sep 2022 21:46:22.000          224.511            -78.461    22351.005863
                  14 Sep 2022 21:47:22.000          223.998            -78.431    22368.146545
                  14 Sep 2022 21:48:22.000          223.488            -78.401    22385.714729
                  14 Sep 2022 21:49:22.000          222.983            -78.371    22403.708030
                  14 Sep 2022 21:50:22.000          222.482            -78.340    22422.123999
                  14 Sep 2022 21:51:22.000          221.985            -78.309    22440.960119
                  14 Sep 2022 21:52:22.000          221.492            -78.278    22460.213813
                  14 Sep 2022 21:53:22.000          221.003            -78.246    22479.882437
                  14 Sep 2022 21:54:22.000          220.519            -78.214    22499.963290
                  14 Sep 2022 21:55:22.000          220.039            -78.181    22520.453607
                  14 Sep 2022 21:56:22.000          219.564            -78.149    22541.350566
                  14 Sep 2022 21:57:22.000          219.092            -78.116    22562.651284
                  14 Sep 2022 21:58:22.000          218.625            -78.082    22584.352824
                  14 Sep 2022 21:59:22.000          218.163            -78.049    22606.452190
                  14 Sep 2022 22:00:22.000          217.705            -78.015    22628.946334
                  14 Sep 2022 22:01:22.000          217.251            -77.982    22651.832152
                  14 Sep 2022 22:02:22.000          216.801            -77.948    22675.106488
                  14 Sep 2022 22:03:22.000          216.356            -77.914    22698.766137
                  14 Sep 2022 22:04:22.000          215.916            -77.880    22722.807840
                  14 Sep 2022 22:05:22.000          215.479            -77.845    22747.228291
                  14 Sep 2022 22:06:22.000          215.047            -77.811    22772.024138
                  14 Sep 2022 22:07:22.000          214.620            -77.777    22797.191980
                  14 Sep 2022 22:08:22.000          214.196            -77.742    22822.728371
                  14 Sep 2022 22:09:22.000          213.777            -77.708    22848.629822
                  14 Sep 2022 22:10:22.000          213.362            -77.674    22874.892800
                  14 Sep 2022 22:11:22.000          212.952            -77.639    22901.513730
                  14 Sep 2022 22:12:22.000          212.546            -77.605    22928.489000
                  14 Sep 2022 22:13:22.000          212.144            -77.571    22955.814954
                  14 Sep 2022 22:14:22.000          211.746            -77.537    22983.487902
                  14 Sep 2022 22:15:22.000          211.352            -77.503    23011.504114
                  14 Sep 2022 22:16:22.000          210.962            -77.469    23039.859826
                  14 Sep 2022 22:17:22.000          210.577            -77.435    23068.551240
                  14 Sep 2022 22:18:22.000          210.195            -77.401    23097.574524
                  14 Sep 2022 22:19:22.000          209.818            -77.368    23126.925816
                  14 Sep 2022 22:20:22.000          209.444            -77.334    23156.601221
                  14 Sep 2022 22:21:22.000          209.075            -77.301    23186.596815
                  14 Sep 2022 22:22:22.000          208.709            -77.268    23216.908647
                  14 Sep 2022 22:23:22.000          208.348            -77.236    23247.532737
                  14 Sep 2022 22:24:22.000          207.990            -77.203    23278.465080
                  14 Sep 2022 22:25:22.000          207.636            -77.171    23309.701636
                  14 Sep 2022 22:26:22.000          207.286            -77.139    23341.238374
                  14 Sep 2022 22:27:22.000          206.939            -77.108    23373.071208
                  14 Sep 2022 22:28:22.000          206.596            -77.076    23405.196040
                  14 Sep 2022 22:29:22.000          206.257            -77.045    23437.608753
                  14 Sep 2022 22:30:22.000          205.921            -77.015    23470.305212
                  14 Sep 2022 22:31:22.000          205.589            -76.984    23503.281262
                  14 Sep 2022 22:32:22.000          205.261            -76.954    23536.532734
                  14 Sep 2022 22:33:22.000          204.936            -76.925    23570.055440
                  14 Sep 2022 22:34:04.830          204.706            -76.904    23594.148696