src/main/resources/ECEF/AccessRandom8/PRN16S260.txt

                                                                           8 Sep 2023 20:32:49
Civil Air Patrol Use Only
Facility-Xian-To-Satellite-gps-svn56:  Inview Azimuth, Elevation, & Range


Xian-To-gps-svn56 - AER reported in the object's default AER frame
------------------------------------------------------------------
                         Time (UTCG)          Azimuth (deg)    Elevation (deg)     Range (km) 
                  ------------------------    -------------    ---------------    ------------
                  14 Sep 2022 11:56:15.822          205.638             30.000    22576.672247
                  14 Sep 2022 12:00:35.000          206.291             31.996    22400.536666
                  14 Sep 2022 12:04:55.000          207.001             34.014    22227.984307
                  14 Sep 2022 12:09:15.000          207.769             36.044    22059.890173
                  14 Sep 2022 12:13:35.000          208.599             38.087    21896.556630
                  14 Sep 2022 12:17:55.000          209.494             40.140    21738.277117
                  14 Sep 2022 12:22:15.000          210.461             42.203    21585.334898
                  14 Sep 2022 12:26:35.000          211.505             44.273    21438.001779
                  14 Sep 2022 12:30:55.000          212.633             46.350    21296.537010
                  14 Sep 2022 12:35:15.000          213.856             48.431    21161.185817
                  14 Sep 2022 12:39:35.000          215.183             50.513    21032.178354
                  14 Sep 2022 12:43:55.000          216.628             52.595    20909.728502
                  14 Sep 2022 12:48:15.000          218.208             54.673    20794.032730
                  14 Sep 2022 12:52:35.000          219.941             56.744    20685.269189
                  14 Sep 2022 12:56:55.000          221.854             58.804    20583.596580
                  14 Sep 2022 13:01:15.000          223.976             60.848    20489.153440
                  14 Sep 2022 13:05:35.000          226.348             62.871    20402.057387
                  14 Sep 2022 13:09:55.000          229.020             64.866    20322.404500
                  14 Sep 2022 13:14:15.000          232.056             66.823    20250.268972
                  14 Sep 2022 13:18:35.000          235.540             68.732    20185.702655
                  14 Sep 2022 13:22:55.000          239.578             70.577    20128.735022
                  14 Sep 2022 13:27:15.000          244.305             72.339    20079.373152
                  14 Sep 2022 13:31:35.000          249.892             73.992    20037.601978
                  14 Sep 2022 13:35:55.000          256.531             75.500    20003.384550
                  14 Sep 2022 13:40:15.000          264.421             76.817    19976.662618
                  14 Sep 2022 13:44:35.000          273.692             77.885    19957.357285
                  14 Sep 2022 13:48:55.000          284.293             78.640    19945.369862
                  14 Sep 2022 13:53:15.000          295.865             79.024    19940.582780
                  14 Sep 2022 13:57:35.000          307.737             79.007    19942.860718
                  14 Sep 2022 14:01:55.000          319.128             78.598    19952.051787
                  14 Sep 2022 14:06:15.000          329.445             77.848    19967.988832
                  14 Sep 2022 14:10:35.000          338.429             76.823    19990.490793
                  14 Sep 2022 14:14:55.000          346.096             75.590    20019.364145
                  14 Sep 2022 14:19:15.000          352.607             74.206    20054.404371
                  14 Sep 2022 14:23:35.000          358.161             72.716    20095.397461
                  14 Sep 2022 14:27:55.000            2.948             71.152    20142.121431
                  14 Sep 2022 14:32:15.000            7.127             69.539    20194.347787
                  14 Sep 2022 14:36:35.000           10.823             67.894    20251.843054
                  14 Sep 2022 14:40:55.000           14.138             66.230    20314.370190
                  14 Sep 2022 14:45:15.000           17.147             64.556    20381.689984
                  14 Sep 2022 14:49:35.000           19.910             62.881    20453.562393
                  14 Sep 2022 14:53:55.000           22.475             61.209    20529.747811
                  14 Sep 2022 14:58:15.000           24.877             59.545    20610.008288
                  14 Sep 2022 15:02:35.000           27.147             57.892    20694.108552
                  14 Sep 2022 15:06:55.000           29.306             56.252    20781.817173
                  14 Sep 2022 15:11:15.000           31.375             54.628    20872.907415
                  14 Sep 2022 15:15:35.000           33.368             53.022    20967.158116
                  14 Sep 2022 15:19:55.000           35.297             51.434    21064.354451
                  14 Sep 2022 15:24:15.000           37.172             49.865    21164.288604
                  14 Sep 2022 15:28:35.000           39.003             48.315    21266.760362
                  14 Sep 2022 15:32:55.000           40.796             46.786    21371.577617
                  14 Sep 2022 15:37:15.000           42.556             45.278    21478.556787
                  14 Sep 2022 15:41:35.000           44.289             43.790    21587.523159
                  14 Sep 2022 15:45:55.000           45.999             42.323    21698.311155
                  14 Sep 2022 15:50:15.000           47.689             40.877    21810.764564
                  14 Sep 2022 15:54:35.000           49.362             39.450    21924.736532
                  14 Sep 2022 15:58:55.000           51.020             38.044    22040.089827
                  14 Sep 2022 16:03:15.000           52.666             36.657    22156.696713
                  14 Sep 2022 16:07:35.000           54.302             35.289    22274.438932
                  14 Sep 2022 16:11:55.000           55.928             33.940    22393.207598
                  14 Sep 2022 16:16:15.000           57.545             32.610    22512.903051
                  14 Sep 2022 16:20:35.000           59.156             31.296    22633.434664
                  14 Sep 2022 16:24:54.936           60.760             30.000    22754.690473

Global Statistics
-----------------
Min Elevation     14 Sep 2022 11:56:15.822          205.638             30.000    22576.672247
Max Elevation     14 Sep 2022 13:55:13.681          301.295             79.066    19940.754920
Mean Elevation                                                          55.862                
Min Range         14 Sep 2022 13:54:00.491          297.943             79.050    19940.475499
Max Range         14 Sep 2022 16:24:54.936           60.760             30.000    22754.690484
Mean Range                                                                        20959.571603
