src/main/resources/ECEF/AccessRandom8/svn-78AER.txt

                                                                          24 Dec 2022 11:43:02
Civil Air Patrol Use Only
Facility-Xian-Sensor-Sensor1-To-Satellite-gps-svn78:  Inview Azimuth, Elevation, & Range


Sensor1-To-gps-svn78 - AER reported in the object's default AER frame
---------------------------------------------------------------------
                         Time (UTCG)          Azimuth (deg)    Elevation (deg)     Range (km) 
                  ------------------------    -------------    ---------------    ------------
                  15 Sep 2022 04:20:49.480          317.599             38.000    22161.327401
                  15 Sep 2022 04:21:49.000          317.666             38.418    22129.631162
                  15 Sep 2022 04:22:49.000          317.730             38.840    22097.826789
                  15 Sep 2022 04:23:49.000          317.790             39.263    22066.173883
                  15 Sep 2022 04:24:49.000          317.846             39.687    22034.676017
                  15 Sep 2022 04:25:49.000          317.898             40.113    22003.336791
                  15 Sep 2022 04:26:49.000          317.946             40.539    21972.159813
                  15 Sep 2022 04:27:49.000          317.990             40.967    21941.148715
                  15 Sep 2022 04:28:49.000          318.029             41.395    21910.307141
                  15 Sep 2022 04:29:49.000          318.064             41.825    21879.638755
                  15 Sep 2022 04:30:49.000          318.095             42.256    21849.147231
                  15 Sep 2022 04:31:49.000          318.121             42.687    21818.836261
                  15 Sep 2022 04:32:49.000          318.142             43.120    21788.709550
                  15 Sep 2022 04:33:49.000          318.159             43.554    21758.770815
                  15 Sep 2022 04:34:49.000          318.170             43.988    21729.023786
                  15 Sep 2022 04:35:49.000          318.177             44.424    21699.472205
                  15 Sep 2022 04:36:49.000          318.178             44.860    21670.119825
                  15 Sep 2022 04:37:49.000          318.174             45.298    21640.970407
                  15 Sep 2022 04:38:49.000          318.164             45.736    21612.027727
                  15 Sep 2022 04:39:49.000          318.149             46.175    21583.295560
                  15 Sep 2022 04:40:49.000          318.128             46.615    21554.777696
                  15 Sep 2022 04:41:49.000          318.101             47.056    21526.477933
                  15 Sep 2022 04:42:49.000          318.067             47.497    21498.400070
                  15 Sep 2022 04:43:49.000          318.028             47.939    21470.547912
                  15 Sep 2022 04:44:49.000          317.982             48.382    21442.925272
                  15 Sep 2022 04:45:49.000          317.930             48.826    21415.535963
                  15 Sep 2022 04:46:49.000          317.870             49.270    21388.383802
                  15 Sep 2022 04:47:49.000          317.804             49.715    21361.472607
                  15 Sep 2022 04:48:49.000          317.730             50.160    21334.806197
                  15 Sep 2022 04:49:49.000          317.649             50.606    21308.388392
                  15 Sep 2022 04:50:49.000          317.560             51.052    21282.223008
                  15 Sep 2022 04:51:49.000          317.463             51.499    21256.313863
                  15 Sep 2022 04:52:49.000          317.358             51.946    21230.664768
                  15 Sep 2022 04:53:49.000          317.244             52.394    21205.279530
                  15 Sep 2022 04:54:49.000          317.122             52.842    21180.161956
                  15 Sep 2022 04:55:49.000          316.990             53.290    21155.315840
                  15 Sep 2022 04:56:49.000          316.849             53.738    21130.744970
                  15 Sep 2022 04:57:49.000          316.699             54.187    21106.453132
                  15 Sep 2022 04:58:49.000          316.538             54.635    21082.444096
                  15 Sep 2022 04:59:49.000          316.367             55.084    21058.721624
                  15 Sep 2022 05:00:49.000          316.185             55.532    21035.289466
                  15 Sep 2022 05:01:49.000          315.992             55.981    21012.151362
                  15 Sep 2022 05:02:49.000          315.788             56.429    20989.311032
                  15 Sep 2022 05:03:49.000          315.571             56.877    20966.772188
                  15 Sep 2022 05:04:49.000          315.342             57.325    20944.538525
                  15 Sep 2022 05:05:49.000          315.100             57.772    20922.613715
                  15 Sep 2022 05:06:49.000          314.844             58.219    20901.001420
                  15 Sep 2022 05:07:49.000          314.575             58.665    20879.705277
                  15 Sep 2022 05:08:49.000          314.291             59.110    20858.728905
                  15 Sep 2022 05:09:49.000          313.992             59.555    20838.075899
                  15 Sep 2022 05:10:49.000          313.678             59.999    20817.749834
                  15 Sep 2022 05:11:49.000          313.347             60.442    20797.754259
                  15 Sep 2022 05:12:49.000          312.999             60.883    20778.092699
                  15 Sep 2022 05:13:49.000          312.633             61.324    20758.768651
                  15 Sep 2022 05:14:49.000          312.249             61.762    20739.785586
                  15 Sep 2022 05:15:49.000          311.846             62.200    20721.146945
                  15 Sep 2022 05:16:49.000          311.423             62.635    20702.856139
                  15 Sep 2022 05:17:49.000          310.979             63.069    20684.916547
                  15 Sep 2022 05:18:49.000          310.513             63.501    20667.331520
                  15 Sep 2022 05:19:49.000          310.025             63.931    20650.104369
                  15 Sep 2022 05:20:49.000          309.512             64.358    20633.238373
                  15 Sep 2022 05:21:49.000          308.976             64.782    20616.736775
                  15 Sep 2022 05:22:49.000          308.413             65.204    20600.602783
                  15 Sep 2022 05:23:49.000          307.823             65.623    20584.839562
                  15 Sep 2022 05:24:49.000          307.206             66.038    20569.450238
                  15 Sep 2022 05:25:49.000          306.559             66.450    20554.437898
                  15 Sep 2022 05:26:49.000          305.882             66.858    20539.805589
                  15 Sep 2022 05:27:49.000          305.173             67.262    20525.556307
                  15 Sep 2022 05:28:49.000          304.431             67.661    20511.693012
                  15 Sep 2022 05:29:49.000          303.654             68.056    20498.218612
                  15 Sep 2022 05:30:49.000          302.841             68.446    20485.135974
                  15 Sep 2022 05:31:49.000          301.991             68.830    20472.447910
                  15 Sep 2022 05:32:49.000          301.101             69.208    20460.157189
                  15 Sep 2022 05:33:49.000          300.172             69.581    20448.266525
                  15 Sep 2022 05:34:49.000          299.200             69.946    20436.778583
                  15 Sep 2022 05:35:49.000          298.185             70.304    20425.695975
                  15 Sep 2022 05:36:49.000          297.125             70.655    20415.021260
                  15 Sep 2022 05:37:49.000          296.019             70.998    20404.756940
                  15 Sep 2022 05:38:49.000          294.865             71.332    20394.905463
                  15 Sep 2022 05:39:49.000          293.662             71.657    20385.469219
                  15 Sep 2022 05:40:49.000          292.408             71.972    20376.450541
                  15 Sep 2022 05:41:49.000          291.104             72.276    20367.851701
                  15 Sep 2022 05:42:49.000          289.747             72.570    20359.674912
                  15 Sep 2022 05:43:49.000          288.338             72.852    20351.922328
                  15 Sep 2022 05:44:49.000          286.875             73.122    20344.596035
                  15 Sep 2022 05:45:49.000          285.359             73.378    20337.698063
                  15 Sep 2022 05:46:49.000          283.790             73.621    20331.230373
                  15 Sep 2022 05:47:49.000          282.169             73.850    20325.194862
                  15 Sep 2022 05:48:49.000          280.496             74.064    20319.593365
                  15 Sep 2022 05:49:49.000          278.773             74.261    20314.427643
                  15 Sep 2022 05:50:49.000          277.003             74.443    20309.699396
                  15 Sep 2022 05:51:49.000          275.187             74.607    20305.410252
                  15 Sep 2022 05:52:49.000          273.328             74.754    20301.561771
                  15 Sep 2022 05:53:49.000          271.431             74.882    20298.155443
                  15 Sep 2022 05:54:49.000          269.499             74.992    20295.192687
                  15 Sep 2022 05:55:49.000          267.537             75.082    20292.674850
                  15 Sep 2022 05:56:49.000          265.550             75.153    20290.603207
                  15 Sep 2022 05:57:49.000          263.542             75.203    20288.978963
                  15 Sep 2022 05:58:49.000          261.521             75.234    20287.803237
                  15 Sep 2022 05:59:49.000          259.491             75.244    20287.077099
                  15 Sep 2022 06:00:49.000          257.458             75.233    20286.801522
                  15 Sep 2022 06:01:49.000          255.429             75.202    20286.977410
                  15 Sep 2022 06:02:49.000          253.410             75.150    20287.605592
                  15 Sep 2022 06:03:49.000          251.406             75.079    20288.686822
                  15 Sep 2022 06:04:49.000          249.423             74.987    20290.221776
                  15 Sep 2022 06:05:49.000          247.466             74.875    20292.211050
                  15 Sep 2022 06:06:49.000          245.539             74.745    20294.655169
                  15 Sep 2022 06:07:49.000          243.648             74.595    20297.554574
                  15 Sep 2022 06:08:49.000          241.795             74.427    20300.909630
                  15 Sep 2022 06:09:49.000          239.985             74.242    20304.720624
                  15 Sep 2022 06:10:49.000          238.219             74.040    20308.987764
                  15 Sep 2022 06:11:49.000          236.500             73.821    20313.711178
                  15 Sep 2022 06:12:49.000          234.830             73.586    20318.890916
                  15 Sep 2022 06:13:49.000          233.209             73.336    20324.526946
                  15 Sep 2022 06:14:49.000          231.640             73.072    20330.619160
                  15 Sep 2022 06:15:49.000          230.121             72.794    20337.167369
                  15 Sep 2022 06:16:49.000          228.654             72.503    20344.171304
                  15 Sep 2022 06:17:49.000          227.238             72.199    20351.630614
                  15 Sep 2022 06:18:49.000          225.872             71.884    20359.544873
                  15 Sep 2022 06:19:49.000          224.555             71.557    20367.913572
                  15 Sep 2022 06:20:49.000          223.288             71.220    20376.736123
                  15 Sep 2022 06:21:49.000          222.067             70.873    20386.011860
                  15 Sep 2022 06:22:49.000          220.893             70.516    20395.740034
                  15 Sep 2022 06:23:49.000          219.764             70.150    20405.919823
                  15 Sep 2022 06:24:49.000          218.679             69.776    20416.550318
                  15 Sep 2022 06:25:49.000          217.635             69.395    20427.630538
                  15 Sep 2022 06:26:49.000          216.632             69.005    20439.159421
                  15 Sep 2022 06:27:49.000          215.668             68.609    20451.135826
                  15 Sep 2022 06:28:49.000          214.742             68.206    20463.558535
                  15 Sep 2022 06:29:49.000          213.851             67.797    20476.426253
                  15 Sep 2022 06:30:49.000          212.996             67.381    20489.737608
                  15 Sep 2022 06:31:49.000          212.173             66.961    20503.491151
                  15 Sep 2022 06:32:49.000          211.382             66.535    20517.685355
                  15 Sep 2022 06:33:49.000          210.621             66.105    20532.318622
                  15 Sep 2022 06:34:49.000          209.889             65.670    20547.389274
                  15 Sep 2022 06:35:49.000          209.185             65.230    20562.895561
                  15 Sep 2022 06:36:49.000          208.508             64.787    20578.835658
                  15 Sep 2022 06:37:49.000          207.856             64.340    20595.207667
                  15 Sep 2022 06:38:49.000          207.228             63.889    20612.009617
                  15 Sep 2022 06:39:49.000          206.623             63.436    20629.239466
                  15 Sep 2022 06:40:49.000          206.040             62.979    20646.895098
                  15 Sep 2022 06:41:49.000          205.478             62.519    20664.974328
                  15 Sep 2022 06:42:49.000          204.936             62.057    20683.474902
                  15 Sep 2022 06:43:49.000          204.413             61.592    20702.394494
                  15 Sep 2022 06:44:49.000          203.908             61.124    20721.730711
                  15 Sep 2022 06:45:49.000          203.421             60.655    20741.481093
                  15 Sep 2022 06:46:49.000          202.951             60.183    20761.643112
                  15 Sep 2022 06:47:49.000          202.496             59.710    20782.214174
                  15 Sep 2022 06:48:49.000          202.057             59.235    20803.191620
                  15 Sep 2022 06:49:49.000          201.632             58.758    20824.572727
                  15 Sep 2022 06:50:49.000          201.221             58.280    20846.354709
                  15 Sep 2022 06:51:49.000          200.823             57.801    20868.534715
                  15 Sep 2022 06:52:49.000          200.438             57.320    20891.109836
                  15 Sep 2022 06:53:49.000          200.064             56.838    20914.077100
                  15 Sep 2022 06:54:49.000          199.703             56.355    20937.433476
                  15 Sep 2022 06:55:49.000          199.352             55.871    20961.175874
                  15 Sep 2022 06:56:49.000          199.012             55.387    20985.301147
                  15 Sep 2022 06:57:49.000          198.682             54.901    21009.806090
                  15 Sep 2022 06:58:49.000          198.361             54.415    21034.687443
                  15 Sep 2022 06:59:49.000          198.050             53.928    21059.941893
                  15 Sep 2022 07:00:49.000          197.747             53.441    21085.566071
                  15 Sep 2022 07:01:49.000          197.453             52.953    21111.556557
                  15 Sep 2022 07:02:49.000          197.167             52.465    21137.909876
                  15 Sep 2022 07:03:49.000          196.888             51.977    21164.622508
                  15 Sep 2022 07:04:49.000          196.617             51.488    21191.690879
                  15 Sep 2022 07:05:49.000          196.353             50.999    21219.111370
                  15 Sep 2022 07:06:49.000          196.096             50.510    21246.880312
                  15 Sep 2022 07:07:49.000          195.845             50.021    21274.993992
                  15 Sep 2022 07:08:49.000          195.601             49.532    21303.448650
                  15 Sep 2022 07:09:49.000          195.362             49.043    21332.240483
                  15 Sep 2022 07:10:49.000          195.129             48.555    21361.365667
                  15 Sep 2022 07:11:49.000          194.901             48.066    21390.820271
                  15 Sep 2022 07:12:49.000          194.679             47.577    21420.600389
                  15 Sep 2022 07:13:49.000          194.461             47.089    21450.702051
                  15 Sep 2022 07:14:49.000          194.248             46.601    21481.121252
                  15 Sep 2022 07:15:49.000          194.040             46.113    21511.853948
                  15 Sep 2022 07:16:49.000          193.836             45.626    21542.896058
                  15 Sep 2022 07:17:49.000          193.636             45.139    21574.243467
                  15 Sep 2022 07:18:49.000          193.440             44.653    21605.892026
                  15 Sep 2022 07:19:49.000          193.248             44.167    21637.837551
                  15 Sep 2022 07:20:49.000          193.060             43.681    21670.075829
                  15 Sep 2022 07:21:49.000          192.875             43.196    21702.602614
                  15 Sep 2022 07:22:49.000          192.693             42.712    21735.413632
                  15 Sep 2022 07:23:49.000          192.515             42.228    21768.504578
                  15 Sep 2022 07:24:49.000          192.339             41.745    21801.871122
                  15 Sep 2022 07:25:49.000          192.166             41.263    21835.508905
                  15 Sep 2022 07:26:49.000          191.997             40.781    21869.413545
                  15 Sep 2022 07:27:49.000          191.829             40.300    21903.580634
                  15 Sep 2022 07:28:49.000          191.665             39.820    21938.005742
                  15 Sep 2022 07:29:49.000          191.502             39.341    21972.684414
                  15 Sep 2022 07:30:49.000          191.342             38.862    22007.612176
                  15 Sep 2022 07:31:49.000          191.185             38.384    22042.784534
                  15 Sep 2022 07:32:37.341          191.059             38.000    22071.297005

Global Statistics
-----------------
Min Elevation     15 Sep 2022 04:20:49.480          317.599             38.000    22161.327401
Max Elevation     15 Sep 2022 05:59:47.996          259.525             75.244    20287.085544
Mean Elevation                                                          59.074                
Min Range         15 Sep 2022 06:00:55.624          257.234             75.231    20286.798754
Max Range         15 Sep 2022 04:20:49.480          317.599             38.000    22161.327401
Mean Range                                                                        20936.027114
