src/main/resources/ECEF/AccessRandom8/SVN78S250.txt

                                                                           8 Sep 2023 21:07:08
Civil Air Patrol Use Only
Facility-Xian-To-Satellite-gps-svn78:  Inview Azimuth, Elevation, & Range


Xian-To-gps-svn78 - AER reported in the object's default AER frame
------------------------------------------------------------------
                         Time (UTCG)          Azimuth (deg)    Elevation (deg)     Range (km) 
                  ------------------------    -------------    ---------------    ------------
                  14 Sep 2022 04:04:52.540          315.718             30.000    22811.904775
                  14 Sep 2022 04:09:02.000          316.268             31.652    22671.019558
                  14 Sep 2022 04:13:12.000          316.773             33.330    22531.368510
                  14 Sep 2022 04:17:22.000          317.228             35.030    22393.488001
                  14 Sep 2022 04:21:32.000          317.629             36.751    22257.615667
                  14 Sep 2022 04:25:42.000          317.971             38.494    22123.996321
                  14 Sep 2022 04:29:52.000          318.251             40.257    21992.881387
                  14 Sep 2022 04:34:02.000          318.461             42.040    21864.528265
                  14 Sep 2022 04:38:12.000          318.596             43.841    21739.199614
                  14 Sep 2022 04:42:22.000          318.646             45.660    21617.162563
                  14 Sep 2022 04:46:32.000          318.603             47.495    21498.687838
                  14 Sep 2022 04:50:42.000          318.456             49.344    21384.048796
                  14 Sep 2022 04:54:52.000          318.191             51.205    21273.520364
                  14 Sep 2022 04:59:02.000          317.791             53.075    21167.378048
                  14 Sep 2022 05:03:12.000          317.237             54.952    21065.896544
                  14 Sep 2022 05:07:22.000          316.506             56.830    20969.348606
                  14 Sep 2022 05:11:32.000          315.568             58.706    20878.003680
                  14 Sep 2022 05:15:42.000          314.387             60.574    20792.126509
                  14 Sep 2022 05:19:52.000          312.919             62.425    20711.975680
                  14 Sep 2022 05:24:02.000          311.108             64.251    20637.802226
                  14 Sep 2022 05:28:12.000          308.885             66.039    20569.847994
                  14 Sep 2022 05:32:22.000          306.168             67.774    20508.344211
                  14 Sep 2022 05:36:32.000          302.856             69.435    20453.509951
                  14 Sep 2022 05:40:42.000          298.834             70.996    20405.550633
                  14 Sep 2022 05:44:52.000          293.976             72.424    20364.656612
                  14 Sep 2022 05:49:02.000          288.174             73.676    20331.001695
                  14 Sep 2022 05:53:12.000          281.367             74.704    20304.741875
                  14 Sep 2022 05:57:22.000          273.604             75.454    20286.014075
                  14 Sep 2022 06:01:32.000          265.098             75.875    20274.935013
                  14 Sep 2022 06:05:42.000          256.234             75.934    20271.600236
                  14 Sep 2022 06:09:52.000          247.491             75.623    20276.083202
                  14 Sep 2022 06:14:02.000          239.310             74.962    20288.434602
                  14 Sep 2022 06:18:12.000          231.981             73.994    20308.681807
                  14 Sep 2022 06:22:22.000          225.616             72.770    20336.828485
                  14 Sep 2022 06:26:32.000          220.194             71.342    20372.854399
                  14 Sep 2022 06:30:42.000          215.621             69.752    20416.715373
                  14 Sep 2022 06:34:52.000          211.775             68.039    20468.343461
                  14 Sep 2022 06:39:02.000          208.535             66.232    20527.647223
                  14 Sep 2022 06:43:12.000          205.795             64.352    20594.512262
                  14 Sep 2022 06:47:22.000          203.462             62.418    20668.801833
                  14 Sep 2022 06:51:32.000          201.462             60.443    20750.357634
                  14 Sep 2022 06:55:42.000          199.735             58.439    20839.000737
                  14 Sep 2022 06:59:52.000          198.232             56.414    20934.532550
                  14 Sep 2022 07:04:02.000          196.913             54.375    21036.736042
                  14 Sep 2022 07:08:12.000          195.745             52.329    21145.376893
                  14 Sep 2022 07:12:22.000          194.703             50.279    21260.204782
                  14 Sep 2022 07:16:32.000          193.765             48.231    21380.954736
                  14 Sep 2022 07:20:42.000          192.913             46.187    21507.348395
                  14 Sep 2022 07:24:52.000          192.133             44.150    21639.095520
                  14 Sep 2022 07:29:02.000          191.412             42.124    21775.895279
                  14 Sep 2022 07:33:12.000          190.739             40.110    21917.437638
                  14 Sep 2022 07:37:22.000          190.106             38.110    22063.404699
                  14 Sep 2022 07:41:32.000          189.505             36.126    22213.472016
                  14 Sep 2022 07:45:42.000          188.929             34.159    22367.309889
                  14 Sep 2022 07:49:52.000          188.374             32.212    22524.584467
                  14 Sep 2022 07:54:02.000          187.833             30.285    22684.959095
                  14 Sep 2022 07:54:39.136          187.753             30.000    22709.025316

Global Statistics
-----------------
Min Elevation     14 Sep 2022 04:04:52.540          315.718             30.000    22811.904775
Max Elevation     14 Sep 2022 06:04:16.754          259.268             75.956    20271.862182
Mean Elevation                                                          54.591                
Min Range         14 Sep 2022 06:05:23.947          256.876             75.942    20271.579912
Max Range         14 Sep 2022 04:04:52.540          315.718             30.000    22811.904775
Mean Range                                                                        21213.346554
