target/classes/AccessTest.txt

gps-svn71-To-TECHDEMOSAT-1_TDS-1_40076
--------------------------------------
                  Access        Start Time (UTCG)           Stop Time (UTCG)        Duration (sec)
                  ------    ------------------------    ------------------------    --------------
                       1    14 Sep 2022 04:00:00.000    14 Sep 2022 04:05:17.426           317.426
                       2    14 Sep 2022 04:37:38.484    14 Sep 2022 05:25:05.986          2847.502
                       3    14 Sep 2022 05:58:50.903    14 Sep 2022 06:48:56.161          3005.258
                       4    14 Sep 2022 07:28:00.263    14 Sep 2022 08:18:32.683          3032.420
                       5    14 Sep 2022 08:57:45.152    14 Sep 2022 09:47:35.393          2990.241
                       6    14 Sep 2022 10:21:33.592    14 Sep 2022 11:08:40.770          2827.178
                       7    14 Sep 2022 11:40:53.463    14 Sep 2022 12:30:12.609          2959.146
                       8    14 Sep 2022 13:08:46.441    14 Sep 2022 13:59:01.966          3015.525
                       9    14 Sep 2022 14:38:42.192    14 Sep 2022 15:28:38.595          2996.403
                      10    14 Sep 2022 16:03:55.658    14 Sep 2022 16:51:32.001          2856.343
                      11    14 Sep 2022 17:22:42.949    14 Sep 2022 18:11:56.399          2953.450
                      12    14 Sep 2022 18:49:28.596    14 Sep 2022 19:40:02.058          3033.462
                      13    14 Sep 2022 20:19:47.295    14 Sep 2022 21:10:09.315          3022.020
                      14    14 Sep 2022 21:46:58.859    14 Sep 2022 22:35:12.678          2893.819
                      15    14 Sep 2022 23:05:58.912    14 Sep 2022 23:54:04.914          2886.002
                      16    15 Sep 2022 00:30:29.714    15 Sep 2022 01:20:39.310          3009.596
                      17    15 Sep 2022 02:00:31.424    15 Sep 2022 02:50:46.437          3015.013
                      18    15 Sep 2022 03:28:37.899    15 Sep 2022 04:17:27.638          2929.738
                      19    15 Sep 2022 04:48:35.915    15 Sep 2022 05:36:28.391          2872.476
                      20    15 Sep 2022 06:11:24.280    15 Sep 2022 07:01:47.419          3023.139
                      21    15 Sep 2022 07:41:17.176    15 Sep 2022 08:31:52.548          3035.372
                      22    15 Sep 2022 09:10:38.112    15 Sep 2022 10:00:11.994          2973.882
                      23    15 Sep 2022 10:32:40.664    15 Sep 2022 11:19:44.511          2823.847
                      24    15 Sep 2022 11:53:01.004    15 Sep 2022 12:42:46.991          2985.987
                      25    15 Sep 2022 13:21:59.069    15 Sep 2022 14:12:20.206          3021.137
                      26    15 Sep 2022 14:51:43.530    15 Sep 2022 15:41:32.271          2988.741
                      27    15 Sep 2022 16:15:20.962    15 Sep 2022 17:02:40.281          2839.319
                      28    15 Sep 2022 17:34:28.958    15 Sep 2022 18:24:16.333          2987.375
                      29    15 Sep 2022 19:02:37.928    15 Sep 2022 19:53:17.764          3039.836
                      30    15 Sep 2022 20:32:59.308    15 Sep 2022 21:23:17.593          3018.285
                      31    15 Sep 2022 21:58:54.519    15 Sep 2022 22:46:33.382          2858.863
                      32    15 Sep 2022 23:17:12.642    16 Sep 2022 00:05:58.890          2926.248
                      33    16 Sep 2022 00:43:28.494    16 Sep 2022 01:33:48.232          3019.739
                      34    16 Sep 2022 02:13:45.998    16 Sep 2022 03:04:01.791          3015.793
                      35    16 Sep 2022 03:40:53.507    16 Sep 2022 04:29:13.667          2900.159
                      36    16 Sep 2022 04:59:34.198    16 Sep 2022 05:48:05.071          2910.873
                      37    16 Sep 2022 06:24:13.091    16 Sep 2022 07:14:49.204          3036.113
                      38    16 Sep 2022 07:54:35.911    16 Sep 2022 08:45:13.064          3037.154
                      39    16 Sep 2022 09:23:18.771    16 Sep 2022 10:12:28.196          2949.425
                      40    16 Sep 2022 10:43:32.138    16 Sep 2022 11:30:54.223          2842.086
                      41    16 Sep 2022 12:05:28.920    16 Sep 2022 12:55:35.298          3006.379
                      42    16 Sep 2022 13:35:15.667    16 Sep 2022 14:25:41.253          3025.586
                      43    16 Sep 2022 15:04:36.089    16 Sep 2022 15:54:11.320          2975.231
                      44    16 Sep 2022 16:26:23.792    16 Sep 2022 17:13:43.710          2839.918
                      45    16 Sep 2022 17:46:37.433    16 Sep 2022 18:36:51.985          3014.553
                      46    16 Sep 2022 19:15:53.479    16 Sep 2022 20:06:38.101          3044.622
                      47    16 Sep 2022 20:46:06.341    16 Sep 2022 21:36:17.111          3010.770
                      48    16 Sep 2022 22:10:24.872    16 Sep 2022 22:57:34.664          2829.792
                      49    16 Sep 2022 23:28:47.529    17 Sep 2022 00:18:11.744          2964.215
                      50    17 Sep 2022 00:56:36.611    17 Sep 2022 01:47:04.050          3027.440
                      51    17 Sep 2022 02:26:58.025    17 Sep 2022 03:17:12.415          3014.390
                      52    17 Sep 2022 03:52:46.806    17 Sep 2022 04:40:34.660          2867.854
                      53    17 Sep 2022 05:10:45.768    17 Sep 2022 05:59:59.899          2954.131
                      54    17 Sep 2022 06:37:14.348    17 Sep 2022 07:27:59.724          3045.376
                      55    17 Sep 2022 08:07:54.681    17 Sep 2022 08:58:32.251          3037.570
                      56    17 Sep 2022 09:35:42.552    17 Sep 2022 10:24:18.375          2915.823
                      57    17 Sep 2022 10:54:19.698    17 Sep 2022 11:42:18.755          2879.057
                      58    17 Sep 2022 12:18:14.222    17 Sep 2022 13:08:35.474          3021.252
                      59    17 Sep 2022 13:48:34.414    17 Sep 2022 14:39:03.490          3029.076
                      60    17 Sep 2022 15:17:16.098    17 Sep 2022 16:06:29.848          2953.749
                      61    17 Sep 2022 16:37:10.581    17 Sep 2022 17:24:53.289          2862.708
                      62    17 Sep 2022 17:59:07.098    17 Sep 2022 18:49:41.665          3034.567
                      63    17 Sep 2022 19:29:13.389    17 Sep 2022 20:20:01.670          3048.281
                      64    17 Sep 2022 20:59:05.597    17 Sep 2022 21:49:03.024          2997.428
                      65    17 Sep 2022 22:21:28.944    17 Sep 2022 23:08:26.848          2817.903
                      66    17 Sep 2022 23:40:47.384    18 Sep 2022 00:30:42.569          2995.184
                      67    18 Sep 2022 01:09:51.705    18 Sep 2022 02:00:25.283          3033.578
                      68    18 Sep 2022 02:40:05.195    18 Sep 2022 03:30:14.809          3009.614
                      69    18 Sep 2022 04:04:13.876    18 Sep 2022 04:51:35.565          2841.689
                      70    18 Sep 2022 05:22:20.112    18 Sep 2022 06:12:13.863          2993.752
                      71    18 Sep 2022 06:50:25.271    18 Sep 2022 07:41:17.378          3052.108
                      72    18 Sep 2022 08:21:11.593    18 Sep 2022 09:11:47.669          3036.076
                      73    18 Sep 2022 09:47:44.155    18 Sep 2022 10:35:39.638          2875.483
                      74    18 Sep 2022 11:05:18.158    18 Sep 2022 11:54:03.400          2925.243
                      75    18 Sep 2022 12:31:13.467    18 Sep 2022 13:21:45.486          3032.018
                      76    18 Sep 2022 14:01:53.424    18 Sep 2022 14:52:24.939          3031.514
                      77    18 Sep 2022 15:29:38.768    18 Sep 2022 16:18:21.774          2923.007
                      78    18 Sep 2022 16:47:53.767    18 Sep 2022 17:36:18.057          2904.290
                      79    18 Sep 2022 18:11:54.719    18 Sep 2022 19:02:43.298          3048.578
                      80    18 Sep 2022 19:42:35.819    18 Sep 2022 20:33:26.875          3051.055
                      81    18 Sep 2022 21:11:53.320    18 Sep 2022 22:01:28.847          2975.527
                      82    18 Sep 2022 22:32:11.278    18 Sep 2022 23:19:22.890          2831.612
                      83    18 Sep 2022 23:53:11.139    19 Sep 2022 00:43:29.243          3018.104
                      84    19 Sep 2022 01:23:11.584    19 Sep 2022 02:13:50.306          3038.722
                      85    19 Sep 2022 02:53:04.434    19 Sep 2022 03:43:03.832          2999.398
                      86    19 Sep 2022 04:15:13.436    19 Sep 2022 05:02:26.892          2833.456
                      87    19 Sep 2022 05:34:20.738    19 Sep 2022 06:24:45.859          3025.121
                      88    19 Sep 2022 07:03:43.358    19 Sep 2022 07:54:40.579          3057.221
                      89    19 Sep 2022 08:34:24.368    19 Sep 2022 09:24:55.881          3031.513
                      90    19 Sep 2022 09:59:18.215    19 Sep 2022 10:46:35.066          2836.851
                      91    19 Sep 2022 11:16:39.898    19 Sep 2022 12:06:09.667          2969.769
                      92    19 Sep 2022 12:44:23.377    19 Sep 2022 13:35:03.445          3040.069
                      93    19 Sep 2022 14:15:10.669    19 Sep 2022 15:05:43.111          3032.443
                      94    19 Sep 2022 15:41:38.458    19 Sep 2022 16:29:43.658          2885.200
                      95    19 Sep 2022 16:58:49.038    19 Sep 2022 17:48:03.257          2954.220
                      96    19 Sep 2022 18:24:56.574    19 Sep 2022 19:15:54.835          3058.261
                      97    19 Sep 2022 19:55:58.941    19 Sep 2022 20:46:51.908          3052.967
                      98    19 Sep 2022 21:24:24.683    19 Sep 2022 22:13:27.114          2942.431
                      99    19 Sep 2022 22:42:43.968    19 Sep 2022 23:30:34.259          2870.291
                     100    20 Sep 2022 00:05:55.072    20 Sep 2022 00:56:29.261          3034.189
                     101    20 Sep 2022 01:36:34.219    20 Sep 2022 02:27:17.435          3043.215
                     102    20 Sep 2022 03:05:51.944    20 Sep 2022 03:55:32.812          2980.868
                     103    20 Sep 2022 04:25:50.283    20 Sep 2022 05:13:22.114          2851.831
                     104    20 Sep 2022 05:46:46.267    20 Sep 2022 06:37:33.765          3047.499
                     105    20 Sep 2022 07:17:06.479    20 Sep 2022 08:08:07.850          3061.371
                     106    20 Sep 2022 08:47:30.188    20 Sep 2022 09:37:52.059          3021.871
                     107    20 Sep 2022 10:10:21.374    20 Sep 2022 10:57:15.384          2814.010
                     108    20 Sep 2022 11:28:30.707    20 Sep 2022 12:18:36.409          3005.703
                     109    20 Sep 2022 12:57:41.137    20 Sep 2022 13:48:27.646          3046.509
                     110    20 Sep 2022 14:28:23.816    20 Sep 2022 15:18:54.620          3030.804
                     111    20 Sep 2022 15:53:09.432    20 Sep 2022 16:40:38.429          2848.997
                     112    20 Sep 2022 17:10:09.435    20 Sep 2022 18:00:10.343          3000.908
                     113    20 Sep 2022 18:38:09.303    20 Sep 2022 19:29:14.418          3065.115
                     114    20 Sep 2022 20:09:20.852    20 Sep 2022 21:00:14.498          3053.646
                     115    20 Sep 2022 21:36:33.657    20 Sep 2022 22:24:51.840          2898.183
                     116    20 Sep 2022 22:53:24.842    20 Sep 2022 23:42:08.105          2923.263
                     117    21 Sep 2022 00:18:54.907    21 Sep 2022 01:09:40.311          3045.404
                     118    21 Sep 2022 01:49:57.747    21 Sep 2022 02:40:44.923          3047.176
                     119    21 Sep 2022 03:18:22.611    21 Sep 2022 04:00:00.000          2497.389

Global Statistics
-----------------
Min Duration           1    14 Sep 2022 04:00:00.000    14 Sep 2022 04:05:17.426           317.426
Max Duration         113    20 Sep 2022 18:38:09.303    20 Sep 2022 19:29:14.418          3065.115
Mean Duration                                                                             2944.860
Total Duration                                                                          350438.375
